[
{
    "name": "福盛山休閒農場",
    "region": "南投中寮",
    "lat": "23.9025",
    "lon": "120.8479",
    "address": "540台灣南投縣南投市大庄路29巷19號"
},
{
    "name": "泰雅渡假村營地",
    "region": "南投仁愛",
    "lat": "24.0675",
    "lon": "120.9459",
    "address": "544台灣南投縣國姓鄉北原路56-2號"
},
{
    "name": "柳家梅園農場",
    "region": "南投信義",
    "lat": "23.6441",
    "lon": "120.8591",
    "address": "556台灣南投縣信義鄉自強村陽和巷87號"
},
{
    "name": "地球村農家民宿",
    "region": "南投國姓",
    "lat": "24.0514",
    "lon": "120.8799",
    "address": "544台灣南投縣國姓鄉長北路128號"
},
{
    "name": "阿肥的天空農場",
    "region": "南投信義",
    "lat": "23.7147",
    "lon": "120.8520",
    "address": "556台灣南投縣信義鄉明德村信維巷2號"
},
{
    "name": "烏松崙張家堡森林梅園",
    "region": "南投信義",
    "lat": "23.6698",
    "lon": "120.8422",
    "address": "556台灣南投縣信義鄉烏松崙產業道路張家堡森林梅園"
},
{
    "name": "梅庄休閒渡假中心營地",
    "region": "南投國姓",
    "lat": "24.0604",
    "lon": "120.9005",
    "address": "糯米橋時尚露營會館 號, No. 27-2長北路國姓鄉南投縣台灣 544"
},
{
    "name": "烏松崙森林渡假營",
    "region": "南投信義",
    "lat": "23.6698",
    "lon": "120.8422",
    "address": "556台灣南投縣信義鄉綠美巷46之1號"
},
{
    "name": "天時農莊",
    "region": "南投信義",
    "lat": "24.0312",
    "lon": "121.1998",
    "address": "556台灣南投縣信義鄉地利村天時農莊"
},
{
    "name": "曉園民宿",
    "region": "南投仁愛",
    "lat": "24.0786",
    "lon": "120.9862",
    "address": "546台灣南投縣仁愛鄉山林巷24號"
},
{
    "name": "佳君露營區",
    "region": "南投埔里",
    "lat": "23.9405",
    "lon": "120.9272",
    "address": "查無地址"
},
{
    "name": "爹姆楓葉山莊",
    "region": "南投奧萬大",
    "lat": "23.9605",
    "lon": "121.1302",
    "address": "546台灣南投縣仁愛鄉仁和路226-9號"
},
{
    "name": "咿喲乀故鄉",
    "region": "南投埔里",
    "lat": "23.9599",
    "lon": "120.8908",
    "address": "54561台灣南投縣埔里鎮種瓜路126-1號咿喲ㄟ故鄉"
},
{
    "name": "四季春天養生農莊",
    "region": "南投埔里",
    "lat": "24.0099",
    "lon": "120.9549",
    "address": "545台灣南投縣埔里鎮西安路二段449號"
},
{
    "name": "江山樂活",
    "region": "南投埔里",
    "lat": "23.9331",
    "lon": "120.8942",
    "address": "545台灣南投縣埔里鎮水上巷68號"
},
{
    "name": "草湳溼地農場",
    "region": "南投埔里",
    "lat": "23.9481",
    "lon": "120.9149",
    "address": "545台灣南投縣埔里鎮種瓜路44號埔里露營‧埔里桃米草湳溼地農場"
},
{
    "name": "顏氏牧場",
    "region": "南投埔里",
    "lat": "23.9417",
    "lon": "120.9276",
    "address": "500台灣彰化縣彰化市大彰路65號"
},
{
    "name": "牛角坑休閒渡假農場",
    "region": "南投市",
    "lat": "23.9434",
    "lon": "120.7252",
    "address": "540台灣南投縣南投市南投市東山巷34號"
},
{
    "name": "鯉魚潭露營區",
    "region": "南投埔里",
    "lat": "23.9650",
    "lon": "121.0006",
    "address": "545南投縣埔里鎮鯉魚路23號"
},
{
    "name": "玉門關山莊農場",
    "region": "南投國姓",
    "lat": "23.9683",
    "lon": "120.8820",
    "address": "544台灣南投縣國姓鄉種瓜巷29號"
},
{
    "name": "莫那魯道生態休閒農場(暫停營業)",
    "region": "南投廬山",
    "lat": "24.0158",
    "lon": "121.1874",
    "address": "查無地址"
},
{
    "name": "太魯灣溫農場",
    "region": "南投春陽",
    "lat": "24.0233",
    "lon": "121.1668",
    "address": "546台灣南投縣仁愛鄉虎門巷97附1號太魯灣露營區"
},
{
    "name": "部落尋奇農莊",
    "region": "南投春陽",
    "lat": "24.0218",
    "lon": "121.1251",
    "address": "546台灣南投縣仁愛鄉虎門巷80號春陽溫泉‧部落尋奇露營區"
},
{
    "name": "瑪莉溫泉休閒農莊",
    "region": "南投春陽",
    "lat": "24.0238",
    "lon": "121.1635",
    "address": "546台灣南投縣仁愛鄉虎門巷100號瑪莉溫泉景觀露營區"
},
{
    "name": "櫻花村民宿",
    "region": "南投春陽",
    "lat": "24.0262",
    "lon": "121.1636",
    "address": "號 No, No. 23聽濤街三芝區新北市台灣 252"
},
{
    "name": "觀溫泉營地",
    "region": "南投春陽",
    "lat": "24.0259",
    "lon": "121.1683",
    "address": "546台灣南投縣仁愛鄉虎門巷135號觀 休閒露營區_春陽"
},
{
    "name": "東埔觀光農園",
    "region": "南投東埔",
    "lat": "23.5574",
    "lon": "120.9226",
    "address": "556台灣南投縣信義鄉東埔觀光農園"
},
{
    "name": "馬赫坡農場營地",
    "region": "南投廬山",
    "lat": "24.0159",
    "lon": "121.1889",
    "address": "查無地址"
},
{
    "name": "田園溫泉露營民宿",
    "region": "南投春陽",
    "lat": "24.0218",
    "lon": "121.1251",
    "address": "查無地址"
},
{
    "name": "野百合溫泉山莊",
    "region": "南投春陽",
    "lat": "24.0240",
    "lon": "121.1649",
    "address": "546台灣南投縣仁愛鄉虎門巷96號"
},
{
    "name": "藝之森休閒渡假村",
    "region": "南投水里",
    "lat": "23.8019",
    "lon": "120.8626",
    "address": "查無地址"
},
{
    "name": "達谷蘭溫泉農場",
    "region": "南投東埔",
    "lat": "23.5662",
    "lon": "120.9209",
    "address": "55609台灣南投縣信義鄉開高巷110-1號"
},
{
    "name": "五里坡茶園露營區",
    "region": "南投清境",
    "lat": "24.0349",
    "lon": "121.1503",
    "address": "546台灣南投縣仁愛鄉信義巷40號"
},
{
    "name": "采荷莊生態休閒農場",
    "region": "南投水里",
    "lat": "23.8021",
    "lon": "120.8651",
    "address": "553台灣南投縣水里鄉回窯路35巷7號"
},
{
    "name": "源頭溫泉民宿營地",
    "region": "南投東埔",
    "lat": "23.5654",
    "lon": "120.9334",
    "address": "556台灣南投縣信義鄉情人谷"
},
{
    "name": "維也納庭園",
    "region": "南投清境",
    "lat": "24.0455",
    "lon": "121.1584",
    "address": "546台灣南投縣仁愛鄉54629號"
},
{
    "name": "合歡山小風口停車場",
    "region": "南投清境",
    "lat": "24.1626",
    "lon": "121.2882",
    "address": "970台灣花蓮縣花蓮市府前路7號"
},
{
    "name": "小太陽",
    "region": "南投清境",
    "lat": "24.0613",
    "lon": "121.1728",
    "address": "查無地址"
},
{
    "name": "清境小瑞士露營區",
    "region": "南投清境",
    "lat": "24.0442",
    "lon": "121.1566",
    "address": "546台灣南投縣仁愛鄉仁和路170號清境農場小瑞士花園"
},
{
    "name": "愛和華林園",
    "region": "南投清境",
    "lat": "24.0431",
    "lon": "121.1564",
    "address": "546台灣南投縣仁愛鄉榮光巷38附1號"
},
{
    "name": "青青草原露營客棧",
    "region": "南投清境",
    "lat": "24.0599",
    "lon": "121.1679",
    "address": "546台灣南投縣仁愛鄉仁和路179之5號清境青青草原客棧"
},
{
    "name": "阿旭茶園",
    "region": "南投竹山",
    "lat": "23.6563",
    "lon": "120.7680",
    "address": "查無地址"
},
{
    "name": "延山露營區",
    "region": "南投竹山",
    "lat": "23.7323",
    "lon": "120.7314",
    "address": "557台灣南投縣竹山鎮延山露營區"
},
{
    "name": "竹屋部落",
    "region": "南投竹山",
    "lat": "23.7656",
    "lon": "120.7183",
    "address": "557台灣南投縣竹山鎮東鄉路1-67號"
},
{
    "name": "觀山露營區",
    "region": "南投溪頭",
    "lat": "23.6762",
    "lon": "120.7935",
    "address": "查無地址"
},
{
    "name": "廣山茶苑(原廣記茶苑)",
    "region": "南投溪頭",
    "lat": "23.6841",
    "lon": "120.7956",
    "address": "台湾, No. 158, Zhongzheng 1st Road, 鹿谷鄉南投縣台灣 558"
},
{
    "name": "車店子休閒農園",
    "region": "南投竹山",
    "lat": "23.7316",
    "lon": "120.6717",
    "address": "557台灣南投縣竹山鎮竹山鎮德興里鯉南路圳頭巷1之30號"
},
{
    "name": "深山林內",
    "region": "南投竹山",
    "lat": "23.6871",
    "lon": "120.7167",
    "address": "557台灣南投縣竹山鎮大鞍里頂林路累藤巷6-66號深山林內生態農場"
},
{
    "name": "文景農場",
    "region": "南投溪頭",
    "lat": "23.6818",
    "lon": "120.7637",
    "address": "558台灣南投縣鹿谷鄉羊灣巷800-10號"
},
{
    "name": "溪頭露營區(溪頭森林遊樂區-自然教育園區露營區)",
    "region": "南投溪頭",
    "lat": "23.6772",
    "lon": "120.7983",
    "address": "558台灣南投縣鹿谷鄉森林巷9號溪頭自然教育園區溪頭露營區"
},
{
    "name": "本草奇花園休閒農場",
    "region": "南投草屯",
    "lat": "23.9524",
    "lon": "120.7223",
    "address": "542台灣南投縣草屯鎮坪頂里富頂路股坑巷22-31號樹寄屋籬景觀民宿(本草奇花園休閒農場）"
},
{
    "name": "大自然生態農莊",
    "region": "南投魚池",
    "lat": "23.9119",
    "lon": "120.8918",
    "address": "查無地址"
},
{
    "name": "梢楠園",
    "region": "南投魚池",
    "lat": "23.9116",
    "lon": "120.8872",
    "address": "555台灣南投縣魚池鄉華龍巷31-2號梢楠園露營休閒民宿"
},
{
    "name": "日月潭磐石營地",
    "region": "南投魚池",
    "lat": "23.8506",
    "lon": "120.9351",
    "address": "555台灣南投縣魚池鄉中正路336號日月潭愛玩客露營區"
},
{
    "name": "霧的羅曼史",
    "region": "南投竹山",
    "lat": "23.6984",
    "lon": "120.7131",
    "address": "557台灣南投縣竹山鎮頂林路累藤巷5之1號"
},
{
    "name": "聖愛營地",
    "region": "南投魚池",
    "lat": "23.8471",
    "lon": "120.9209",
    "address": "555台灣南投县鱼池乡日月村中正路261之10號"
},
{
    "name": "日月潭松湖營地",
    "region": "南投魚池",
    "lat": "23.8429",
    "lon": "120.9276",
    "address": "555台灣南投縣魚池鄉中正路336號日月潭愛玩客露營區"
},
{
    "name": "香菇寮小吃",
    "region": "南投魚池",
    "lat": "23.9159",
    "lon": "120.8867",
    "address": "55543台灣南投縣魚池鄉華龍巷41-2號日月潭香菇寮小吃露營"
},
{
    "name": "日月潭月牙灣營地",
    "region": "南投魚池",
    "lat": "23.8435",
    "lon": "120.9040",
    "address": "555台灣南投縣魚池鄉555南投縣魚池鄉日月潭"
},
{
    "name": "三育基督書院",
    "region": "南投魚池",
    "lat": "23.9043",
    "lon": "120.9356",
    "address": "555台灣南投縣魚池鄉瓊文巷39號"
},
{
    "name": "武岫農圃",
    "region": "南投鹿谷",
    "lat": "23.6827",
    "lon": "120.7676",
    "address": "558台灣南投縣鹿谷鄉羊灣巷800-11號"
},
{
    "name": "鳳凰渡假山莊",
    "region": "南投鹿谷",
    "lat": "23.7128",
    "lon": "120.8230",
    "address": "558台灣南投縣鹿谷鄉田底巷10之30號"
},
{
    "name": "武陵農場營地",
    "region": "台中和平",
    "lat": "24.3804",
    "lon": "121.3048",
    "address": "武陵農場 號, No. 2武陵路和平區台中市台灣 424"
},
{
    "name": "天園休閒渡假村",
    "region": "台中和平",
    "lat": "24.1748",
    "lon": "120.9320",
    "address": "查無地址"
},
{
    "name": "和興製茶站",
    "region": "南投鹿谷",
    "lat": "23.7115",
    "lon": "120.7733",
    "address": "558台灣南投縣鹿谷鄉愛鄉路39之30號"
},
{
    "name": "魚雅筑度假村",
    "region": "南投魚池",
    "lat": "23.9091",
    "lon": "120.8886",
    "address": "555台灣南投縣魚池鄉華龍巷56-2號"
},
{
    "name": "小半天露營休閒園區",
    "region": "南投鹿谷",
    "lat": "23.7272",
    "lon": "120.7506",
    "address": "558台灣南投縣鹿谷鄉中湖巷28之16號鹿谷小半天休閒露營區"
},
{
    "name": "東湖露營區",
    "region": "南投鹿谷",
    "lat": "23.7541",
    "lon": "120.7734",
    "address": "558台灣南投縣鹿谷鄉堀邊巷1-36號東湖露營區"
},
{
    "name": "麒麟潭波斯園露營區",
    "region": "南投鹿谷",
    "lat": "23.7536",
    "lon": "120.7720",
    "address": "558台灣南投縣鹿谷鄉堀邊巷1之27號鹿谷麒麟潭 湖光露營區"
},
{
    "name": "鳳凰露營區",
    "region": "南投鹿谷",
    "lat": "23.7423",
    "lon": "120.7810",
    "address": "353台灣苗栗縣南庄鄉田美村17鄰125-1號鳳凰谷露營區"
},
{
    "name": "酷攀岩",
    "region": "台中太平",
    "lat": "24.135",
    "lon": "120.8082",
    "address": "查無地址"
},
{
    "name": "布拉姆田莊",
    "region": "台中新社",
    "lat": "24.1935",
    "lon": "120.8188",
    "address": "號, No. 1068環中東路一段北屯區台中市台灣 406"
},
{
    "name": "小路露營區",
    "region": "台中新社",
    "lat": "24.2402",
    "lon": "120.7965",
    "address": "426台灣台中市新社區崑山里食水嵙6-2號小路露營區"
},
{
    "name": "台灣省農會休閒綜合農牧場",
    "region": "台中外埔",
    "lat": "24.3304",
    "lon": "120.6188",
    "address": "438台灣台中市外埔區二崁路700號中華民國農會休閒綜合農牧場"
},
{
    "name": "雙柔銀杏林農場",
    "region": "台中和平",
    "lat": "24.2500",
    "lon": "120.9033",
    "address": "424台灣和平區雪山路"
},
{
    "name": "福壽山農場營地",
    "region": "台中和平",
    "lat": "24.2195",
    "lon": "121.2394",
    "address": "424台灣南投縣和平區福壽路29號福壽山農場露營區"
},
{
    "name": "裡冷溪探索園區",
    "region": "台中和平",
    "lat": "24.1571",
    "lon": "120.9586",
    "address": "424台灣台中市和平區裡冷巷69號裡冷溪探索園區"
},
{
    "name": "谷關溫泉露營區 (金谷關農場)",
    "region": "台中和平",
    "lat": "24.1691",
    "lon": "120.9604",
    "address": "424台灣台中市和平區東關路一段分校巷34號谷關谷雲台溫泉民宿露營區"
},
{
    "name": "谷關汶山飯店",
    "region": "台中和平",
    "lat": "24.2053",
    "lon": "121.0106",
    "address": "424台灣台中市和平區東關路一段溫泉巷16號"
},
{
    "name": "瓦浪休閒農場民宿",
    "region": "台中和平",
    "lat": "24.1986",
    "lon": "121.0181",
    "address": "424台灣台中市和平區東關路一段分校巷34號谷關谷雲台溫泉民宿露營區"
},
{
    "name": "情人谷休閒農場",
    "region": "台中豐原",
    "lat": "24.2261",
    "lon": "120.7569",
    "address": "查無地址"
},
{
    "name": "綠草原森林溪谷",
    "region": "台中新社",
    "lat": "24.1447",
    "lon": "120.8472",
    "address": "查無地址"
},
{
    "name": "悠樂活農場(吊神山農場)",
    "region": "台中東勢",
    "lat": "24.2918",
    "lon": "120.8094",
    "address": "查無地址"
},
{
    "name": "梅林親水岸營地",
    "region": "台中新社",
    "lat": "24.1532",
    "lon": "120.8110",
    "address": "426台灣台中市新社區南華街28-1號"
},
{
    "name": "農香山莊",
    "region": "台中東勢",
    "lat": "24.2403",
    "lon": "120.8504",
    "address": "423台灣台中市東勢區隆興里"
},
{
    "name": "綠野行",
    "region": "台中豐原",
    "lat": "24.2725",
    "lon": "120.7486",
    "address": "600台灣嘉義市西區北港路558號"
},
{
    "name": "東勢林場",
    "region": "台中東勢",
    "lat": "24.2866",
    "lon": "120.8690",
    "address": "423台灣台中市東勢區勢林街6-1號東勢林場遊樂區"
},
{
    "name": "水雲居休閒渡假村",
    "region": "台中新社",
    "lat": "24.1572",
    "lon": "120.8699",
    "address": "426台灣台中市新社區美林91之1號水雲居露營烤肉"
},
{
    "name": "沐心泉休閒會館民宿",
    "region": "台中新社",
    "lat": "24.1493",
    "lon": "120.8472",
    "address": "426台灣台中市新社區中興街60號沐心泉休閒農場"
},
{
    "name": "童軍陽明山活動中心",
    "region": "台北北投",
    "lat": "25.0743",
    "lon": "121.5320",
    "address": "台灣陽明山國家公園"
},
{
    "name": "春園高爾夫休閒農場",
    "region": "台南七股",
    "lat": "23.1198",
    "lon": "120.1517",
    "address": "72449台灣台南市七股區看坪46-10號春園高爾夫親子農場 Spring Garden Golf Ranch & Resort"
},
{
    "name": "貴子坑營地",
    "region": "台北北投",
    "lat": "25.1519",
    "lon": "121.4936",
    "address": "112台灣台北市北投區秀山路"
},
{
    "name": "千蝶谷昆蟲生態農場",
    "region": "台北士林",
    "lat": "25.122",
    "lon": "121.5866",
    "address": "111台灣台北市士林區至善路三段292號千蝶谷昆蟲生態農場"
},
{
    "name": "阿水的家",
    "region": "台北士林",
    "lat": "25.1326",
    "lon": "121.5325",
    "address": "111台灣台北市士林區中山北路七段219巷163號"
},
{
    "name": "陽明山菁山遊憩區-露營場",
    "region": "台北士林",
    "lat": "25.1537",
    "lon": "121.5591",
    "address": "111台灣台北市士林區菁山路101巷71弄16號菁山遊憩區"
},
{
    "name": "雙冬民宿",
    "region": "台南南化",
    "lat": "23.1741",
    "lon": "120.5983",
    "address": "查無地址"
},
{
    "name": "七股鹽山",
    "region": "台南七股",
    "lat": "23.1525",
    "lon": "120.0996",
    "address": "724台灣台南市七股區鹽埕里66號"
},
{
    "name": "印月休閒農莊",
    "region": "台南南化",
    "lat": "23.0575",
    "lon": "120.4941",
    "address": "716台灣台南市南化區印月農莊"
},
{
    "name": "華中河濱公園",
    "region": "台北萬華",
    "lat": "25.0162",
    "lon": "121.4957",
    "address": "108台灣台北市萬華區華中河濱公園"
},
{
    "name": "南化水庫(野營)",
    "region": "台南南化",
    "lat": "23.0850",
    "lon": "120.5273",
    "address": "716台灣台南市南化區玉山里"
},
{
    "name": "尖山埤江南渡假村(尖山埤水庫)",
    "region": "台南柳營",
    "lat": "23.2667",
    "lon": "120.3928",
    "address": "Jianshanpi Jiangnan Resort, 柳營區台南市台灣 736"
},
{
    "name": "台南桂花園會館",
    "region": "台南新化",
    "lat": "23.0199",
    "lon": "120.3776",
    "address": "71242台灣台南市新化區中興路42巷36號"
},
{
    "name": "虎頭埤風景區(附設露營區)",
    "region": "台南新化",
    "lat": "23.0262",
    "lon": "120.3368",
    "address": "71242台灣台南市新化區中興路42巷36號"
},
{
    "name": "走馬瀨農場",
    "region": "台南大內",
    "lat": "23.1370",
    "lon": "120.4292",
    "address": "742台灣台南市大內區其子瓦60號"
},
{
    "name": "崁頭山孚佑宮(仙公廟)",
    "region": "台南東山",
    "lat": "23.2678",
    "lon": "120.5010",
    "address": "733台灣台南市東山區南勢里大洋14號"
},
{
    "name": "仙湖休閒農場",
    "region": "台南東山",
    "lat": "23.2658",
    "lon": "120.4823",
    "address": "733台灣台南市東山區一鄰6-2號"
},
{
    "name": "烏山頭水庫風景區",
    "region": "台南官田",
    "lat": "23.2079",
    "lon": "120.363",
    "address": "720台灣台南市官田區嘉南68-2號"
},
{
    "name": "梅嶺-青青河畔",
    "region": "台南楠西",
    "lat": "23.1746",
    "lon": "120.5439",
    "address": "715台灣台南市楠西區灣丘里梅嶺梅嶺青青河畔茶樹露營區"
},
{
    "name": "德元埤荷蘭村生態休閒園區",
    "region": "台南柳營",
    "lat": "23.2638",
    "lon": "120.3411",
    "address": "736台灣台南市柳營區"
},
{
    "name": "曾文水庫東口野營遊憩區",
    "region": "台南楠西",
    "lat": "23.2297",
    "lon": "120.5019",
    "address": "715台灣台南市楠西區70號"
},
{
    "name": "向陽森林遊樂區營地",
    "region": "台東利稻",
    "lat": "23.2483",
    "lon": "120.9858",
    "address": "查無地址"
},
{
    "name": "龜丹溫泉休閒體驗農園",
    "region": "台南楠西",
    "lat": "23.1341",
    "lon": "120.5083",
    "address": "715台灣台南市楠西區龜丹里59-6號"
},
{
    "name": "嶺頂公園",
    "region": "台南關子嶺",
    "lat": "23.3385",
    "lon": "120.5034",
    "address": "732台灣台南市白河區28-3號嶺頂公園"
},
{
    "name": "小熊渡假村",
    "region": "台東卑南",
    "lat": "22.8827",
    "lon": "121.1166",
    "address": "954台灣台東縣卑南鄉稻葉路16號"
},
{
    "name": "初鹿椰子林",
    "region": "台東卑南",
    "lat": "22.8699",
    "lon": "121.0958",
    "address": "954台灣台東縣卑南鄉忠孝路龍過脈"
},
{
    "name": "藍天休閒農場",
    "region": "台東卑南",
    "lat": "22.8566",
    "lon": "121.0967",
    "address": "查無地址"
},
{
    "name": "崁頂福安宮",
    "region": "台南關仔嶺",
    "lat": "23.2976",
    "lon": "120.5028",
    "address": "732台灣台南市白河區南寮111號"
},
{
    "name": "龍目井休閒農場",
    "region": "台南玉井",
    "lat": "23.1595",
    "lon": "120.4409",
    "address": "714台灣台南市玉井區141之5號"
},
{
    "name": "茂勝休閒農場營地",
    "region": "台南白河",
    "lat": "23.3627",
    "lon": "120.4133",
    "address": "732台灣台南市白河區120之50號"
},
{
    "name": "蟬園民宿",
    "region": "台南白河",
    "lat": "23.3099",
    "lon": "120.4656",
    "address": "732台灣台南市白河區六重溪123號"
},
{
    "name": "金針山金山埡口營區",
    "region": "台東太麻里",
    "lat": "22.6479",
    "lon": "120.9589",
    "address": "964台灣台東縣金峰鄉太麻里金針山金山啞口野營區"
},
{
    "name": "峽谷溫泉營地",
    "region": "台東知本",
    "lat": "22.6813",
    "lon": "120.9847",
    "address": "查無地址"
},
{
    "name": "椰林觀海園區營地",
    "region": "台東東河",
    "lat": "22.8615",
    "lon": "121.1947",
    "address": "959台灣台東縣東河鄉郡界68號"
},
{
    "name": "利稻國小",
    "region": "台東海端",
    "lat": "23.1866",
    "lon": "121.0245",
    "address": "957台灣台東縣海端鄉文化路1號"
},
{
    "name": "金針山金山星空露營區",
    "region": "台東太麻里",
    "lat": "22.6337",
    "lon": "120.9710",
    "address": "964台灣台東縣金峰鄉佳崙產業道路 金山星空露營區"
},
{
    "name": "小野柳露營區",
    "region": "台東市",
    "lat": "22.7956",
    "lon": "121.1960",
    "address": "950台灣台東縣台東市松江路一段500號小野柳露營區"
},
{
    "name": "ㄚ鴨旺",
    "region": "台東知本",
    "lat": "22.6916",
    "lon": "121.0014",
    "address": "954台灣台東縣卑南鄉龍泉路136號"
},
{
    "name": "池上牧野渡假村營地",
    "region": "台東池上",
    "lat": "23.1085",
    "lon": "121.1975",
    "address": "958台灣台東縣池上鄉新興村110號"
},
{
    "name": "八里溪民宿",
    "region": "台東東河",
    "lat": "22.8847",
    "lon": "121.2375",
    "address": "959台灣台東縣東河鄉南八里11-5號"
},
{
    "name": "池上蠶桑休閒農場營地",
    "region": "台東池上",
    "lat": "23.0869",
    "lon": "121.2260",
    "address": "983台灣花蓮縣富里鄉羅山村東湖37號羅山露營區"
},
{
    "name": "江媽媽溫泉露營",
    "region": "台東知本",
    "lat": "22.6825",
    "lon": "120.9932",
    "address": "查無地址"
},
{
    "name": "都歷派出所",
    "region": "台東都蘭",
    "lat": "23.0255",
    "lon": "121.3302",
    "address": "961台灣台東縣成功鎮都歷路46號"
},
{
    "name": "椰油國小",
    "region": "台東蘭嶼",
    "lat": "22.0451",
    "lon": "121.5173",
    "address": "952台灣台東縣蘭嶼鄉椰油村1號"
},
{
    "name": "情人沙灘",
    "region": "台東長濱",
    "lat": "23.3422",
    "lon": "121.4658",
    "address": "962台灣台東縣長濱鄉真柄86號"
},
{
    "name": "巴歌浪船屋民宿",
    "region": "台東長濱",
    "lat": "23.4333",
    "lon": "121.4942",
    "address": "962台灣台東縣長濱鄉15"
},
{
    "name": "都蘭派出所",
    "region": "台東都蘭",
    "lat": "22.8755",
    "lon": "121.2288",
    "address": "959台灣台東縣東河鄉都蘭248號"
},
{
    "name": "綠島紫坪露營區",
    "region": "台東綠島",
    "lat": "22.6372",
    "lon": "121.4976",
    "address": "951台灣台東縣綠島鄉台東縣綠島鄉"
},
{
    "name": "遠山功夫浴場",
    "region": "台東金崙",
    "lat": "22.5322",
    "lon": "120.9541",
    "address": "963台灣台東縣太麻里鄉"
},
{
    "name": "樂山溫泉露營區",
    "region": "台東知本",
    "lat": "22.6908",
    "lon": "121.0054",
    "address": "954台灣台東縣卑南鄉龍泉路113巷29號樂山溫泉露營區"
},
{
    "name": "東遊季溫泉渡假村-露營烤肉區",
    "region": "台東知本",
    "lat": "22.6956",
    "lon": "121.0206",
    "address": "954台灣台東縣卑南鄉溫泉路376巷18號東遊季溫泉渡假村"
},
{
    "name": "清水莊民宿",
    "region": "台東關山",
    "lat": "23.0436",
    "lon": "121.1681",
    "address": "956台灣台東縣關山鎮隆盛路142之1號"
},
{
    "name": "脫線牧場",
    "region": "台東鹿野",
    "lat": "22.8962",
    "lon": "121.0965",
    "address": "955台灣台東縣鹿野鄉中華路一段100號"
},
{
    "name": "盈家溫泉休閒農場營地",
    "region": "台東鹿野",
    "lat": "22.8961",
    "lon": "121.0945",
    "address": "955台灣台東縣鹿野鄉中華路一段86號"
},
{
    "name": "綠盈牧場",
    "region": "嘉義中埔",
    "lat": "23.4302",
    "lon": "120.543",
    "address": "606台灣嘉義縣中埔鄉村4鄰2-3號"
},
{
    "name": "春耕源香草花園",
    "region": "台東鹿野",
    "lat": "22.8947",
    "lon": "121.1208",
    "address": "955台灣台東縣鹿野鄉中華路一段261巷18-1號"
},
{
    "name": "紅葉溫泉親水公園",
    "region": "台東鹿野",
    "lat": "22.8918",
    "lon": "121.0694",
    "address": "953台灣台東縣延平鄉紅葉溫泉親水公園"
},
{
    "name": "鹿野溪遊季溫泉",
    "region": "台東鹿野",
    "lat": "22.8995",
    "lon": "121.1044",
    "address": "955台灣台東縣鹿野鄉中華路一段200-1號"
},
{
    "name": "福鹿山休閒農莊",
    "region": "台東鹿野",
    "lat": "22.9133",
    "lon": "121.1200",
    "address": "955台灣台東縣鹿野鄉高台路42巷145號"
},
{
    "name": "樟原派出所",
    "region": "台東長濱",
    "lat": "23.4131",
    "lon": "121.4828",
    "address": "962台灣台東縣長濱鄉10號"
},
{
    "name": "嘉義農場 生態渡假玩國",
    "region": "嘉義大埔",
    "lat": "23.2511",
    "lon": "120.5636",
    "address": "607台灣嘉義縣大埔鄉1號跳跳生態農場-嘉義露營區-嘉義度假小木屋-水庫砂鍋魚頭"
},
{
    "name": "跳跳生態農場",
    "region": "嘉義大埔",
    "lat": "23.2447",
    "lon": "120.5763",
    "address": "607台灣嘉義縣大埔鄉1號跳跳生態農場-嘉義露營區-嘉義度假小木屋-水庫砂鍋魚頭"
},
{
    "name": "松田崗休閒農場",
    "region": "嘉義民雄",
    "lat": "23.5464",
    "lon": "120.4743",
    "address": "621台灣嘉義縣民雄鄉48之15號松田崗休閒農莊"
},
{
    "name": "金桔農場",
    "region": "嘉義民雄",
    "lat": "23.5578",
    "lon": "120.4730",
    "address": "621台灣嘉義縣民雄鄉金桔農莊"
},
{
    "name": "奮起湖-湘泉民宿",
    "region": "嘉義竹崎",
    "lat": "23.4852",
    "lon": "120.6808",
    "address": "604台灣嘉義縣竹崎鄉"
},
{
    "name": "多林停車場(大棟山登山口處)",
    "region": "嘉義竹崎",
    "lat": "23.4397",
    "lon": "120.6707",
    "address": "604台灣嘉義縣竹崎鄉大凍山步道"
},
{
    "name": "大峽谷生態農場",
    "region": "嘉義太平",
    "lat": "23.574",
    "lon": "120.6450",
    "address": "603台灣嘉義縣梅山鄉"
},
{
    "name": "若蘭山莊入口處營地",
    "region": "嘉義瑞里",
    "lat": "23.5383",
    "lon": "120.6784",
    "address": "603台灣嘉義縣梅山鄉"
},
{
    "name": "情人公園",
    "region": "嘉義大埔",
    "lat": "23.3027",
    "lon": "120.5885",
    "address": "607台灣嘉義縣大埔鄉情人公園"
},
{
    "name": "阿喜的店",
    "region": "嘉義瑞里",
    "lat": "23.5418",
    "lon": "120.6805",
    "address": "90062台灣屏東縣屏東市信義路252號"
},
{
    "name": "鄒族園",
    "region": "嘉義阿里山",
    "lat": "23.4676",
    "lon": "120.7134",
    "address": "查無地址"
},
{
    "name": "阿谷雅娜",
    "region": "嘉義阿里山",
    "lat": "23.5301",
    "lon": "120.739",
    "address": "查無地址"
},
{
    "name": "見來成露營區",
    "region": "嘉義竹崎",
    "lat": "23.5046",
    "lon": "120.6596",
    "address": "號, No. 54重慶北路三段136巷大同區台北市台灣 103"
},
{
    "name": "憲明國小附設福山營地",
    "region": "宜蘭三星",
    "lat": "24.6616",
    "lon": "121.6186",
    "address": "266台灣宜蘭縣三星鄉福山街119號"
},
{
    "name": "豐山- 豐賓山莊",
    "region": "嘉義阿里山",
    "lat": "23.5744",
    "lon": "120.7482",
    "address": "605台灣嘉義縣阿里山鄉石鼓盤22號"
},
{
    "name": "摩都布有露營區",
    "region": "嘉義阿里山",
    "lat": "23.4063",
    "lon": "120.7219",
    "address": "605台灣嘉義縣阿里山鄉20號摩都布有露營休閒區"
},
{
    "name": "大凍山休閒渡假中心營地",
    "region": "嘉義阿里山",
    "lat": "23.4907",
    "lon": "120.7211",
    "address": "605台灣嘉義縣阿里山鄉頂湖214號605"
},
{
    "name": "山美-彬彬露營區",
    "region": "嘉義阿里山",
    "lat": "23.3702",
    "lon": "120.6696",
    "address": "605台灣嘉義縣阿里山鄉山美"
},
{
    "name": "正統休閒農場民宿",
    "region": "宜蘭三星",
    "lat": "24.6644",
    "lon": "121.7136",
    "address": "266台灣宜蘭縣三星鄉大隱八路340號"
},
{
    "name": "盛德休閒農莊",
    "region": "基隆七堵",
    "lat": "25.1328",
    "lon": "121.6897",
    "address": "206台灣基隆市七堵區大同街47-3號"
},
{
    "name": "旺樹園養生教育農場",
    "region": "宜蘭冬山",
    "lat": "24.6491",
    "lon": "121.7347",
    "address": "269台灣宜蘭縣冬山鄉環湖路62號"
},
{
    "name": "東岳湧泉",
    "region": "宜蘭南澳",
    "lat": "24.5311",
    "lon": "121.8320",
    "address": "272台灣宜蘭縣南澳鄉東岳村"
},
{
    "name": "仁山茶園",
    "region": "宜蘭冬山",
    "lat": "24.6305",
    "lon": "121.7505",
    "address": "269台灣宜蘭縣冬山鄉中城路30號"
},
{
    "name": "仁山植物園停車場",
    "region": "宜蘭冬山",
    "lat": "24.6237",
    "lon": "121.7522",
    "address": "269台灣宜蘭縣冬山鄉"
},
{
    "name": "南澳農場",
    "region": "宜蘭南澳",
    "lat": "24.4497",
    "lon": "121.7889",
    "address": "270台灣宜蘭縣蘇澳鎮海岸路92號南澳農場"
},
{
    "name": "東風茶館(東風休閒農場)",
    "region": "宜蘭冬山",
    "lat": "24.6195",
    "lon": "121.7293",
    "address": "269台灣宜蘭縣冬山鄉中山路769號東風綠活 Oriental Green26944"
},
{
    "name": "宜蘭冬山河利澤簡橋停車場",
    "region": "宜蘭五結",
    "lat": "24.6693",
    "lon": "121.8149",
    "address": "268台灣宜蘭縣五結鄉"
},
{
    "name": "長埤湖停車場",
    "region": "宜蘭三星",
    "lat": "24.6438",
    "lon": "121.6103",
    "address": "266台灣宜蘭縣三星鄉"
},
{
    "name": "宜蘭冬山河五結堤防停車場",
    "region": "宜蘭五結",
    "lat": "24.6927",
    "lon": "121.8321",
    "address": "268台灣宜蘭縣五結鄉"
},
{
    "name": "牛鬥一角民宿野營休閒農場",
    "region": "宜蘭三星",
    "lat": "24.6327",
    "lon": "121.5683",
    "address": "26643台灣宜蘭縣三星鄉泰雅一路 525巷牛頭203號牛鬥一角宜蘭露營區民宿"
},
{
    "name": "寒溪農場",
    "region": "宜蘭大同",
    "lat": "24.5942",
    "lon": "121.6845",
    "address": "267台灣宜蘭縣大同鄉古魯巷1之1號寒溪農場"
},
{
    "name": "武塔國小",
    "region": "宜蘭南澳",
    "lat": "24.4455",
    "lon": "121.7776",
    "address": "272台灣宜蘭縣南澳鄉新溪路1號號"
},
{
    "name": "山水休閒農場",
    "region": "宜蘭員山",
    "lat": "24.7076",
    "lon": "121.6482",
    "address": "264台灣宜蘭縣員山鄉員山路三段329號"
},
{
    "name": "五峰旗瀑布-風景區停車場",
    "region": "宜蘭礁溪",
    "lat": "24.8298",
    "lon": "121.7519",
    "address": "262台灣宜蘭縣礁溪鄉五峰路81巷6號"
},
{
    "name": "太平山美霖農場",
    "region": "宜蘭大同",
    "lat": "24.5541",
    "lon": "121.4437",
    "address": "267台灣宜蘭縣大同鄉太平巷58之1號太平山國家森林遊樂區"
},
{
    "name": "雙連埤野夫炊煙",
    "region": "宜蘭員山",
    "lat": "24.7529",
    "lon": "121.6341",
    "address": "264台灣宜蘭縣員山鄉雙埤路21-8號"
},
{
    "name": "楓之谷(太平山背包客)森林渡假山莊",
    "region": "宜蘭大同",
    "lat": "24.5216",
    "lon": "121.4475",
    "address": "267台灣宜蘭縣大同鄉泰雅路六段2巷6-3號台七甲線13.7km處"
},
{
    "name": "玉蘭茶園民宿",
    "region": "宜蘭大同",
    "lat": "24.6129",
    "lon": "121.6339",
    "address": "267台灣宜蘭縣大同鄉松羅村玉蘭75號"
},
{
    "name": "櫻花溫泉",
    "region": "宜蘭大同",
    "lat": "24.6339",
    "lon": "121.6052",
    "address": "267台灣宜蘭縣大同鄉泰雅一路73號"
},
{
    "name": "太平山翠峰湖",
    "region": "宜蘭大同",
    "lat": "24.5125",
    "lon": "121.6005",
    "address": "272台灣宜蘭縣南澳鄉翠峰湖環山步道"
},
{
    "name": "六福山莊露營區",
    "region": "屏東墾丁",
    "lat": "21.9561",
    "lon": "120.7841",
    "address": "946台灣屏東縣恆春鎮公園路大溪巷5號"
},
{
    "name": "南太武山莊",
    "region": "屏東來義",
    "lat": "22.5613",
    "lon": "120.6768",
    "address": "922台灣屏東縣來義鄉大後社區5號"
},
{
    "name": "涼山露營區(涼山瀑布旁)",
    "region": "屏東三地門",
    "lat": "22.6826",
    "lon": "120.6446",
    "address": "903台灣屏東縣瑪家鄉"
},
{
    "name": "武荖坑風景區",
    "region": "宜蘭蘇澳",
    "lat": "24.6127",
    "lon": "121.8131",
    "address": "270台灣宜蘭縣蘇澳鎮武荖坑路75號武荖坑風景區"
},
{
    "name": "頭城海水浴場-龜山朝日露營區",
    "region": "宜蘭頭城",
    "lat": "24.8522",
    "lon": "121.8282",
    "address": "261台灣宜蘭縣頭城鎮協天路400號龜山朝日露營園區"
},
{
    "name": "櫻花陵園(墓地)",
    "region": "宜蘭礁溪",
    "lat": "24.8233",
    "lon": "121.7014",
    "address": "262台灣宜蘭縣礁溪鄉雪谷大道1號"
},
{
    "name": "海神宮",
    "region": "屏東三地門",
    "lat": "22.8208",
    "lon": "120.6475",
    "address": "901台灣屏東縣三地門鄉海神宮(黛娥娜神池)"
},
{
    "name": "沙瑪基島露營渡假區",
    "region": "小琉球",
    "lat": "22.3508",
    "lon": "120.3690",
    "address": "929台灣屏東縣琉球鄉復興路32-15號樂園露營區"
},
{
    "name": "大溪國小",
    "region": "宜蘭頭城",
    "lat": "24.9354",
    "lon": "121.8860",
    "address": "335台灣桃園市大溪區登龍路19號"
},
{
    "name": "賽嘉樂園",
    "region": "屏東三地門",
    "lat": "22.7516",
    "lon": "120.6372",
    "address": "901台灣屏東縣三地門鄉賽嘉巷121號賽嘉樂園"
},
{
    "name": "天氣晴露營區",
    "region": "屏東墾丁",
    "lat": "21.9367",
    "lon": "120.7158",
    "address": "查無地址"
},
{
    "name": "尼莫休閒渡假中心",
    "region": "屏東墾丁",
    "lat": "21.9695",
    "lon": "120.7549",
    "address": "查無地址"
},
{
    "name": "君臨休閒農場露營區",
    "region": "屏東墾丁",
    "lat": "21.9461",
    "lon": "120.7951",
    "address": "946台灣屏東縣恆春鎮墾丁路330之9號"
},
{
    "name": "大尖山原野露營區",
    "region": "屏東墾丁",
    "lat": "21.9361",
    "lon": "120.8181",
    "address": "查無地址"
},
{
    "name": "寂寞公路(寶園民宿露營區)",
    "region": "屏東墾丁",
    "lat": "21.9435",
    "lon": "120.7128",
    "address": "查無地址"
},
{
    "name": "最南露營區",
    "region": "屏東墾丁",
    "lat": "21.8995",
    "lon": "120.8539",
    "address": "946台灣屏东恒春镇屏東縣恆春鎮燈塔路73號房屋懇丁最南點露營區"
},
{
    "name": "安佳春露營住宿旅店",
    "region": "屏東墾丁",
    "lat": "22.0335",
    "lon": "120.6891",
    "address": "946台灣屏東縣車城鄉後灣路193號安佳春露營區"
},
{
    "name": "白沙-浪淘沙椰灣休閒吧(墾丁海白沙灣遊樂區)",
    "region": "屏東墾丁",
    "lat": "21.9325",
    "lon": "120.7208",
    "address": "946台灣屏東縣恆春鎮白砂路"
},
{
    "name": "後灣-安佳春露營區",
    "region": "屏東墾丁",
    "lat": "22.0335",
    "lon": "120.6891",
    "address": "946台灣屏東縣車城鄉後灣路193號安佳春露營區"
},
{
    "name": "沙島渡假村",
    "region": "屏東墾丁",
    "lat": "21.9120",
    "lon": "120.8481",
    "address": "946台灣屏東縣恆春鎮砂島路252號"
},
{
    "name": "砂島-清涼露營區",
    "region": "屏東墾丁",
    "lat": "21.9137",
    "lon": "120.8478",
    "address": "946台灣屏東縣恆春鎮砂島路234-1號946清涼露營區"
},
{
    "name": "頂園營地",
    "region": "屏東墾丁",
    "lat": "21.9361",
    "lon": "120.8181",
    "address": "查無地址"
},
{
    "name": "萬里桐-巨石露營區",
    "region": "屏東墾丁",
    "lat": "21.9991",
    "lon": "120.7029",
    "address": "946台灣屏東縣恆春鎮萬里路34之5號"
},
{
    "name": "香蕉灣-原始林露營區",
    "region": "屏東墾丁",
    "lat": "21.9262",
    "lon": "120.8325",
    "address": "94644台灣屏東縣恆春鎮鵝鑾里船帆路238-2號墾丁香蕉灣原始林露營區"
},
{
    "name": "砂島-青山露營區",
    "region": "屏東墾丁",
    "lat": "21.9135",
    "lon": "120.8477",
    "address": "青山露營區, No. 234-3, 砂島路恆春鎮屏東縣台灣 946"
},
{
    "name": "紫灣VILLA渡假村",
    "region": "屏東滿州",
    "lat": "22.0967",
    "lon": "120.8312",
    "address": "香港柴灣"
},
{
    "name": "旭海-左岸民宿露營營地",
    "region": "屏東牡丹",
    "lat": "22.1936",
    "lon": "120.8881",
    "address": "945台灣屏東縣牡丹鄉旭海路1-3號"
},
{
    "name": "紅柴坑-紅柴水鄉",
    "region": "屏東墾丁",
    "lat": "21.9744",
    "lon": "120.7176",
    "address": "台灣紅柴坑漁港"
},
{
    "name": "旭海草原露營區",
    "region": "屏東牡丹",
    "lat": "22.1941",
    "lon": "120.8857",
    "address": "945台灣屏東縣牡丹鄉旭海路95之6號945"
},
{
    "name": "一場夢農場露營區",
    "region": "屏東滿州",
    "lat": "21.9877",
    "lon": "120.8327",
    "address": "947台灣屏東縣滿州鄉公館路53-3號"
},
{
    "name": "一心休閒農場",
    "region": "新北三峽",
    "lat": "24.0433",
    "lon": "120.5896",
    "address": "查無地址"
},
{
    "name": "嵐雲綠海",
    "region": "屏東瑪家",
    "lat": "22.6679",
    "lon": "120.6794",
    "address": "903台灣屏東縣瑪家鄉903瑪卡札亞街11巷1號"
},
{
    "name": "桃花園",
    "region": "屏東瑪家",
    "lat": "22.6679",
    "lon": "120.6794",
    "address": "330台灣桃園市桃園區復興路151號"
},
{
    "name": "保力林場(屏東科技大學實驗林場)",
    "region": "屏東車城",
    "lat": "22.0712",
    "lon": "120.7635",
    "address": "944台灣屏東縣車城鄉保力村竹社路5號"
},
{
    "name": "有木國小",
    "region": "新北三峽",
    "lat": "24.8533",
    "lon": "121.4370",
    "address": "220台灣新北市三峽區131號"
},
{
    "name": "癮石男女生態藝術園區",
    "region": "屏東長治",
    "lat": "22.7083",
    "lon": "120.5797",
    "address": "908台灣屏東縣長治鄉天主巷13號"
},
{
    "name": "保力休閒農場營地",
    "region": "屏東車城",
    "lat": "22.0720",
    "lon": "120.7623",
    "address": "944台灣屏東縣車城鄉竹社路20號"
},
{
    "name": "穎達生態休閒農場",
    "region": "屏東萬巒",
    "lat": "22.6455",
    "lon": "120.6270",
    "address": "923台灣屏東縣萬巒鄉新安路52號"
},
{
    "name": "蓮荷果休閒農園",
    "region": "彰化二水",
    "lat": "22.7668",
    "lon": "120.7229",
    "address": "530台灣彰化縣二水鄉彰化縣二水鄉南通路一段和英義路交叉口"
},
{
    "name": "皇后鎮森林營地",
    "region": "新北三峽",
    "lat": "24.9178",
    "lon": "121.4334",
    "address": "237台灣新北市三峽區竹崙路95巷1號皇后鎮森林三峽"
},
{
    "name": "成家露營區",
    "region": "新北坪林",
    "lat": "24.8937",
    "lon": "121.7335",
    "address": "232台灣新北市坪林區石槽50號綠野山林 (成家營地)"
},
{
    "name": "月牙灣營區",
    "region": "新北坪林",
    "lat": "24.9552",
    "lon": "121.7443",
    "address": "查無地址"
},
{
    "name": "合歡露營山莊",
    "region": "新北坪林",
    "lat": "24.9303",
    "lon": "121.7107",
    "address": "232台灣新北市坪林區水德里苦苓腳3-3號合歡露營度假山莊-公司員工旅遊 研習場地 教會 學生社團活動 迎新 幹訓 校外教學 露營烤肉 玩水 推薦住宿 地方創意料理 營火晚會 晚會表演場地 diy活動 大型會議室"
},
{
    "name": "薇菈溫泉會館",
    "region": "新北三峽",
    "lat": "24.8640",
    "lon": "121.4218",
    "address": "237台灣新北市三峽區"
},
{
    "name": "天山親水農場營地",
    "region": "新北坪林",
    "lat": "24.9082",
    "lon": "121.6801",
    "address": "232台灣新北市坪林區金瓜寮24之2號"
},
{
    "name": "坪安潭露營地",
    "region": "新北坪林",
    "lat": "24.9489",
    "lon": "121.7341",
    "address": "232台灣新北市坪林區大粗坑6之1號坪安潭營地"
},
{
    "name": "蟾蜍山谷(大車輪)烤肉露營區",
    "region": "新北三峽",
    "lat": "24.8564",
    "lon": "121.4358",
    "address": "237台灣新北市三峽區130之1號"
},
{
    "name": "九芎根香魚露營休閒農場",
    "region": "新北坪林",
    "lat": "24.9157",
    "lon": "121.6805",
    "address": "232台灣新北市坪林區九芎根登山步道"
},
{
    "name": "林園營地",
    "region": "新北坪林",
    "lat": "24.9404",
    "lon": "121.7198",
    "address": "232台灣新北市坪林區林園營地號"
},
{
    "name": "大溪地渡假村",
    "region": "新北坪林",
    "lat": "24.9131",
    "lon": "121.7081",
    "address": "232台灣新北市坪林區鶯子瀨路2之1號坪林大溪地露營區"
},
{
    "name": "闊瀨營地",
    "region": "新北坪林",
    "lat": "24.9652",
    "lon": "121.7697",
    "address": "查無地址"
},
{
    "name": "老地方營地",
    "region": "新北坪林",
    "lat": "24.9147",
    "lon": "121.7069",
    "address": "查無地址"
},
{
    "name": "金溪茶園營地",
    "region": "新北坪林",
    "lat": "24.9158",
    "lon": "121.6818",
    "address": "232台灣新北市坪林區金瓜寮路13-2號金溪茶園營地-金溪露營區"
},
{
    "name": "清泉水頭營地",
    "region": "新北坪林",
    "lat": "24.9530",
    "lon": "121.7504",
    "address": "232台灣新北市坪林區新北市坪林區漁光里粗石斛6之2號清泉水頭營地"
},
{
    "name": "茄苳神木潭營地",
    "region": "新北坪林",
    "lat": "24.9612",
    "lon": "121.7679",
    "address": "544台灣南投縣國姓鄉北港村"
},
{
    "name": "茶香地營區",
    "region": "新北坪林",
    "lat": "24.9468",
    "lon": "121.7240",
    "address": "232台灣新北市坪林區新北市坪林區坪雙路一段102號"
},
{
    "name": "美樂地露營區",
    "region": "新北坪林",
    "lat": "24.9186",
    "lon": "121.6825",
    "address": "232台灣新北市坪林區坪林美樂地營地"
},
{
    "name": "鐵馬新樂園露營區",
    "region": "新北坪林",
    "lat": "24.9138",
    "lon": "121.6809",
    "address": "232台灣新北市坪林區金瓜寮19之1號鐵馬新樂園"
},
{
    "name": "青山農場營地",
    "region": "新北坪林",
    "lat": "24.8940",
    "lon": "121.7366",
    "address": "963台灣台東縣太麻里鄉 93, 10號金山埡口露營區"
},
{
    "name": "黑龍潭營地",
    "region": "北坪林",
    "lat": "24.9562",
    "lon": "121.7868",
    "address": "232台灣新北市坪林區鷺鶿岫4-1號黑龍潭露營區"
},
{
    "name": "叭連休閒農場",
    "region": "新北汐止",
    "lat": "25.1119",
    "lon": "121.6249",
    "address": "查無地址"
},
{
    "name": "永賓營地",
    "region": "新北坪林",
    "lat": "24.9393",
    "lon": "121.7234",
    "address": "232台灣新北市坪林區磨壁潭10-1號永賓露營區"
},
{
    "name": "東方農場",
    "region": "新北平溪",
    "lat": "25.0259",
    "lon": "121.7863",
    "address": "226台灣新北市平溪區新北市平溪區平湖里坑頭10號"
},
{
    "name": "桂山發電廠",
    "region": "新北新店",
    "lat": "24.9030",
    "lon": "121.5601",
    "address": "231台灣新北市新店區桂山路37號"
},
{
    "name": "桶後溪(野營)",
    "region": "新北烏來",
    "lat": "24.8369",
    "lon": "121.6483",
    "address": "233台灣新北市烏來區桶後溪營地"
},
{
    "name": "淡水休閒農場",
    "region": "新北淡水",
    "lat": "25.1413",
    "lon": "121.4580",
    "address": "251台灣新北市淡水區坪頂里三空泉18號"
},
{
    "name": "平湖森林遊樂區",
    "region": "新北平溪",
    "lat": "25.0300",
    "lon": "121.7933",
    "address": "查無地址"
},
{
    "name": "長青谷大自然生活園區營地",
    "region": "新北新店",
    "lat": "24.9262",
    "lon": "121.5264",
    "address": "231台灣新北市新店區新潭路二段25號長青谷大自然園區"
},
{
    "name": "平溪生態教育會館/平溪森林小學旅店",
    "region": "新北平溪",
    "lat": "25.0015",
    "lon": "121.7470",
    "address": "226台灣新北市平溪區東勢里火燒寮6號平溪區農會生態教育會館"
},
{
    "name": "烏來生態農場營地",
    "region": "新北烏來",
    "lat": "24.8592",
    "lon": "121.5400",
    "address": "233台灣新北市烏來區233"
},
{
    "name": "卡拉模基民宿村",
    "region": "新北烏來",
    "lat": "24.7803",
    "lon": "121.5029",
    "address": "233台灣新北市烏來區福山里"
},
{
    "name": "水田園農莊",
    "region": "新北萬里",
    "lat": "25.2110",
    "lon": "121.6416",
    "address": "207台灣新北市萬里區萬里加投45之9號水田園農莊"
},
{
    "name": "大納溫泉",
    "region": "新北烏來",
    "lat": "24.8359",
    "lon": "121.5225",
    "address": "查無地址"
},
{
    "name": "翦山水營地",
    "region": "新北貢寮",
    "lat": "25.0129",
    "lon": "121.9260",
    "address": "查無地址"
},
{
    "name": "皇帝殿大山休閒農園",
    "region": "新北石碇",
    "lat": "24.9910",
    "lon": "121.6612",
    "address": "223台灣新北市石碇區皇帝殿山登山步道"
},
{
    "name": "福山緣營區",
    "region": "新北烏來",
    "lat": "24.7788",
    "lon": "121.5031",
    "address": "233台灣新北市烏來區卡拉模基2號福山緣"
},
{
    "name": "朱舍農莊",
    "region": "新北石門",
    "lat": "25.2888",
    "lon": "121.5342",
    "address": "25341台灣新北市石門區崁子腳路46之1號"
},
{
    "name": "桃源谷龍山園營地",
    "region": "新北貢寮",
    "lat": "24.9949",
    "lon": "121.8899",
    "address": "228台灣新北市貢寮區興隆街100號龍門露營渡假基地"
},
{
    "name": "富貴角公園(老梅公園)",
    "region": "新北石門",
    "lat": "25.2905",
    "lon": "121.5398",
    "address": "253台灣新北市石门区富貴角公園"
},
{
    "name": "阿里磅生態農場民宿",
    "region": "新北石門",
    "lat": "25.2641",
    "lon": "121.5833",
    "address": "253台灣新北市石門區"
},
{
    "name": "卡拉模基民宿村",
    "region": "新北烏來",
    "lat": "24.7803",
    "lon": "121.5029",
    "address": "233台灣新北市烏來區福山里"
},
{
    "name": "水田園農莊",
    "region": "新北萬里",
    "lat": "25.2110",
    "lon": "121.6416",
    "address": "207台灣新北市萬里區萬里加投45之9號水田園農莊"
},
{
    "name": "大納溫泉",
    "region": "新北烏來",
    "lat": "24.8359",
    "lon": "121.5225",
    "address": "查無地址"
},
{
    "name": "翦山水營地",
    "region": "新北貢寮",
    "lat": "25.0129",
    "lon": "121.9260",
    "address": "查無地址"
},
{
    "name": "皇帝殿大山休閒農園",
    "region": "新北石碇",
    "lat": "24.9910",
    "lon": "121.6612",
    "address": "223台灣新北市石碇區皇帝殿山登山步道"
},
{
    "name": "福山緣營區",
    "region": "新北烏來",
    "lat": "24.7788",
    "lon": "121.5031",
    "address": "233台灣新北市烏來區卡拉模基2號福山緣"
},
{
    "name": "朱舍農莊",
    "region": "新北石門",
    "lat": "25.2888",
    "lon": "121.5342",
    "address": "25341台灣新北市石門區崁子腳路46之1號"
},
{
    "name": "桃源谷龍山園營地",
    "region": "新北貢寮",
    "lat": "24.9949",
    "lon": "121.8899",
    "address": "228台灣新北市貢寮區興隆街100號龍門露營渡假基地"
},
{
    "name": "富貴角公園(老梅公園)",
    "region": "新北石門",
    "lat": "25.2905",
    "lon": "121.5398",
    "address": "253台灣新北市石门区富貴角公園"
},
{
    "name": "阿里磅生態農場民宿",
    "region": "新北石門",
    "lat": "25.2641",
    "lon": "121.5833",
    "address": "253台灣新北市石門區"
},
{
    "name": "哈勇營地",
    "region": "新竹五峰",
    "lat": "24.6248",
    "lon": "121.1518",
    "address": "311台灣新竹縣五峰鄉竹林村一鄰28號"
},
{
    "name": "巴斯瓜藍民宿",
    "region": "新竹五峰",
    "lat": "24.5502",
    "lon": "121.1302",
    "address": "311台灣新竹縣五峰鄉桃山村18鄰"
},
{
    "name": "尤外農場山莊",
    "region": "新竹五峰",
    "lat": "24.5757",
    "lon": "121.0845",
    "address": "查無地址"
},
{
    "name": "櫻之都",
    "region": "新竹五峰",
    "lat": "24.6190",
    "lon": "121.1148",
    "address": "311台灣新竹縣五峰鄉竹林村和平166-1號櫻之都手作營區"
},
{
    "name": "浮雲杉林民宿",
    "region": "新竹五峰",
    "lat": "24.5772",
    "lon": "121.0945",
    "address": "311台灣新竹縣五峰鄉白蘭298之3號浮雲杉林民宿露營區"
},
{
    "name": "巴棍休閒農莊",
    "region": "新竹五峰",
    "lat": "24.5755",
    "lon": "121.0879",
    "address": "311台灣新竹縣五峰鄉桃山村18鄰311-2號"
},
{
    "name": "樂哈山露營區",
    "region": "新竹五峰",
    "lat": "24.5744",
    "lon": "121.0794",
    "address": "311台灣新竹縣五峰鄉白蘭311-4號樂哈山露營區"
},
{
    "name": "桃山清泉露營區",
    "region": "新竹五峰",
    "lat": "24.5740",
    "lon": "121.1065",
    "address": "311台灣新竹縣五峰鄉311"
},
{
    "name": "梅花山莊",
    "region": "新竹五峰",
    "lat": "24.6169",
    "lon": "121.1272",
    "address": "313台灣新竹縣尖石鄉梅花村148號梅花山莊"
},
{
    "name": "得碇休閒山莊",
    "region": "新竹五峰",
    "lat": "24.5769",
    "lon": "121.0941",
    "address": "得碇休閒山莊 24°34'33. 121°05'02.6\"E, No. 241春日路桃園區桃園市台灣 330"
},
{
    "name": "老牛農場",
    "region": "新竹五峰",
    "lat": "24.5826",
    "lon": "121.0820",
    "address": "查無地址"
},
{
    "name": "谷亮緣露營地",
    "region": "新竹五峰",
    "lat": "24.6361",
    "lon": "121.1446",
    "address": "查無地址"
},
{
    "name": "迦南山莊",
    "region": "新竹五峰",
    "lat": "24.6288",
    "lon": "121.1905",
    "address": "311台灣新竹縣五峰鄉新竹縣五峰鄉桃山村白蘭305之6號"
},
{
    "name": "涼山露營區",
    "region": "新竹五峰",
    "lat": "24.6096",
    "lon": "121.1006",
    "address": "311台灣新竹縣五峰鄉421號"
},
{
    "name": "翡速景園",
    "region": "新竹五峰",
    "lat": "24.6140",
    "lon": "121.1379",
    "address": "查無地址"
},
{
    "name": "觀雲亭農莊",
    "region": "新竹五峰",
    "lat": "24.6091",
    "lon": "121.0984",
    "address": "311台灣新竹縣五峰鄉23鄰461-2號觀雲露營民宿"
},
{
    "name": "瓦度的家",
    "region": "新竹五峰",
    "lat": "24.6361",
    "lon": "121.1446",
    "address": "311台灣新竹縣五峰鄉桃山村18鄰白蘭299-5號瓦度的家"
},
{
    "name": "莫那的家",
    "region": "新竹五峰",
    "lat": "24.5779",
    "lon": "121.0836",
    "address": "311台灣新竹縣五峰鄉桃山村"
},
{
    "name": "溫家茶園",
    "region": "新竹五峰",
    "lat": "24.6671",
    "lon": "121.1640",
    "address": "311台灣新竹縣五峰鄉花園村"
},
{
    "name": "阿慕依露營區",
    "region": "新竹五峰",
    "lat": "24.5819",
    "lon": "121.0908",
    "address": "313台灣新竹縣尖石鄉14-3"
},
{
    "name": "永茂森林山莊",
    "region": "新竹北埔",
    "lat": "24.6361",
    "lon": "121.0603",
    "address": "314台灣新竹縣新埔鎮焿寮坪3-1號"
},
{
    "name": "龍門休閒農場",
    "region": "新竹北埔",
    "lat": "24.6717",
    "lon": "121.0601",
    "address": "314台灣新竹縣北埔鄉"
},
{
    "name": "鳥嘴山露營地",
    "region": "新竹五峰",
    "lat": "24.5788",
    "lon": "121.0785",
    "address": "311台灣新竹縣五峰鄉桃山村18鄰314號鳥嘴山露營區"
},
{
    "name": "八五山老劉果園露營區",
    "region": "新竹尖石",
    "lat": "24.7157",
    "lon": "121.2807",
    "address": "313台灣新竹縣尖石鄉新樂村煤源段8鄰51-1號"
},
{
    "name": "內灣南坪露營烤肉區",
    "region": "新竹內灣",
    "lat": "24.6521",
    "lon": "121.1596",
    "address": "312台灣新竹縣橫山鄉內灣村16鄰南坪39號內灣南坪露營烤肉區"
},
{
    "name": "北得拉曼休閒營地",
    "region": "新竹尖石",
    "lat": "24.7364",
    "lon": "121.2724",
    "address": "206台灣新竹縣尖石鄉新樂村5鄰上水田150-2號北得拉曼休閒營地"
},
{
    "name": "老頭擺生態農場",
    "region": "新竹北埔",
    "lat": "24.6735",
    "lon": "121.0647",
    "address": "314台灣新竹縣北埔鄉"
},
{
    "name": "阿貴營地",
    "region": "新竹五峰",
    "lat": "24.6047",
    "lon": "121.0899",
    "address": "311台灣新竹縣五峰鄉大隘村23鄰466號 阿貴營地"
},
{
    "name": "八五山泉山莊",
    "region": "新竹尖石",
    "lat": "24.7158",
    "lon": "121.2755",
    "address": "313台灣新竹縣尖石鄉"
},
{
    "name": "魯木自然休閒農場",
    "region": "新竹五峰",
    "lat": "24.6027",
    "lon": "121.0961",
    "address": "311台灣新竹縣五峰鄉23鄰468之5號"
},
{
    "name": "阿貴營地",
    "region": "新竹五峰",
    "lat": "24.6047",
    "lon": "121.0899",
    "address": "311台灣新竹縣五峰鄉大隘村23鄰466號 阿貴營地"
},
{
    "name": "魯木自然休閒農場",
    "region": "新竹五峰",
    "lat": "24.6027",
    "lon": "121.0961",
    "address": "311台灣新竹縣五峰鄉23鄰468之5號"
},
{
    "name": "龍門休閒農場",
    "region": "新竹北埔",
    "lat": "24.6717",
    "lon": "121.0601",
    "address": "314台灣新竹縣北埔鄉"
},
{
    "name": "永茂森林山莊",
    "region": "新竹北埔",
    "lat": "24.6361",
    "lon": "121.0603",
    "address": "314台灣新竹縣新埔鎮焿寮坪3-1號"
},
{
    "name": "八五山泉山莊",
    "region": "新竹尖石",
    "lat": "24.7158",
    "lon": "121.2755",
    "address": "313台灣新竹縣尖石鄉"
},
{
    "name": "老頭擺生態農場",
    "region": "新竹北埔",
    "lat": "24.6735",
    "lon": "121.0647",
    "address": "314台灣新竹縣北埔鄉"
},
{
    "name": "北得拉曼休閒營地",
    "region": "新竹尖石",
    "lat": "24.7364",
    "lon": "121.2724",
    "address": "206台灣新竹縣尖石鄉新樂村5鄰上水田150-2號北得拉曼休閒營地"
},
{
    "name": "八五山老劉果園露營區",
    "region": "新竹尖石",
    "lat": "24.7157",
    "lon": "121.2807",
    "address": "313台灣新竹縣尖石鄉新樂村煤源段8鄰51-1號"
},
{
    "name": "內灣南坪露營烤肉區",
    "region": "新竹內灣",
    "lat": "24.6521",
    "lon": "121.1596",
    "address": "312台灣新竹縣橫山鄉內灣村16鄰南坪39號內灣南坪露營烤肉區"
},
{
    "name": "鳥嘴山露營地",
    "region": "新竹五峰",
    "lat": "24.5788",
    "lon": "121.0785",
    "address": "311台灣新竹縣五峰鄉桃山村18鄰314號鳥嘴山露營區"
},
{
    "name": "櫻花谷露營區",
    "region": "新竹尖石",
    "lat": "24.7135",
    "lon": "121.2701",
    "address": "313台灣新竹縣尖石鄉水田4鄰36-1號櫻花谷露營區"
},
{
    "name": "綠野森林露營區",
    "region": "新竹尖石",
    "lat": "24.6610",
    "lon": "121.1716",
    "address": "545台灣南投縣埔里鎮西安路一段550巷12-1號綠野森林農場民宿露營區"
},
{
    "name": "水茗漾民宿咖啡庭園",
    "region": "新竹尖石",
    "lat": "24.6977",
    "lon": "121.1958",
    "address": "31342台灣新竹縣尖石鄉嘉樂村6鄰3號"
},
{
    "name": "群園露營區",
    "region": "新竹尖石",
    "lat": "24.7284",
    "lon": "121.2252",
    "address": "31342台灣新竹縣尖石鄉嘉樂村6鄰3號"
},
{
    "name": "田中休閒露營區",
    "region": "新竹尖石",
    "lat": "24.7399",
    "lon": "121.2570",
    "address": "31342台灣新竹縣尖石鄉水田3鄰107號田中休閒露營區"
},
{
    "name": "瑪雅山莊",
    "region": "新竹尖石",
    "lat": "24.6892",
    "lon": "121.1775",
    "address": "313台灣新竹縣尖石鄉8鄰54號"
},
{
    "name": "源昇園露營區",
    "region": "新竹尖石",
    "lat": "24.7493",
    "lon": "121.2665",
    "address": "查無地址"
},
{
    "name": "芭比蕾",
    "region": "新竹尖石",
    "lat": "24.7493",
    "lon": "121.2665",
    "address": "313台灣新竹縣尖石鄉4 鄰 139-1 號 芭芘蕾露營區"
},
{
    "name": "美樹民宿",
    "region": "新竹尖石",
    "lat": "24.6541",
    "lon": "121.3050",
    "address": "查無地址"
},
{
    "name": "水田部落民宿露營",
    "region": "新竹尖石",
    "lat": "24.7322",
    "lon": "121.2498",
    "address": "31342台灣新竹縣尖石鄉新樂村7鄰水田190號 水田營地"
},
{
    "name": "香杉露營區",
    "region": "新竹尖石",
    "lat": "24.6688",
    "lon": "121.2120",
    "address": "313台灣新竹縣尖石鄉錦屏村49號香杉露營區"
},
{
    "name": "雲雀山莊",
    "region": "新竹峨眉",
    "lat": "24.6699",
    "lon": "120.9900",
    "address": "315台灣新竹縣峨眉鄉湖光村12鄰2-8號十二寮雲雀山莊"
},
{
    "name": "紫水岸香草花園",
    "region": "新竹峨眉",
    "lat": "24.6741",
    "lon": "120.9858",
    "address": "315台灣新竹縣峨眉鄉湖光村12鄰紫水岸香草花園"
},
{
    "name": "馭閒陶苑",
    "region": "新竹尖石",
    "lat": "24.7413",
    "lon": "121.2559",
    "address": "查無地址"
},
{
    "name": "谷燕養鳟場",
    "region": "新竹尖石",
    "lat": "24.6236",
    "lon": "121.1269",
    "address": "311台灣新竹縣五峰鄉羅平道路159號"
},
{
    "name": "鴛鴦谷養殖農場",
    "region": "新竹尖石",
    "lat": "24.7486",
    "lon": "121.2691",
    "address": "313台灣新竹縣尖石鄉水田4鄰138號"
},
{
    "name": "十二寮桐花谷露營區",
    "region": "新竹峨眉",
    "lat": "24.6712",
    "lon": "120.9939",
    "address": "315台灣新竹縣峨眉鄉十二寮十二寮桐花谷露營區"
},
{
    "name": "錦屏美人湯館營地",
    "region": "新竹尖石",
    "lat": "24.6715",
    "lon": "121.2093",
    "address": "313台灣新竹縣尖石鄉小錦屏露營區"
},
{
    "name": "谷漢休閒露營區",
    "region": "新竹尖石",
    "lat": "24.7241",
    "lon": "121.2325",
    "address": "313台灣新竹縣尖石鄉14鄰160之1號谷漢休閒露營區-露營包場 戲水池 螢火蟲 附近景點露營區 親子旅遊 場地租借 露營烤肉 家庭旅遊 竹筒飯 體驗傳統射箭 租帳篷"
},
{
    "name": "峨眉湖休閒農場",
    "region": "新竹峨眉",
    "lat": "24.6748",
    "lon": "120.9833",
    "address": "315台灣新竹縣峨眉鄉湖光村環湖路8-8號峨眉湖吾家農場"
},
{
    "name": "瑪琦健康世界",
    "region": "新竹橫山",
    "lat": "24.7201",
    "lon": "121.1188",
    "address": "查無地址"
},
{
    "name": "古農美食休閒農場",
    "region": "新竹新豐",
    "lat": "24.9347",
    "lon": "120.9961",
    "address": "查無地址"
},
{
    "name": "神秘國度森林渡假村(成豐夢幻世界)",
    "region": "新竹竹東",
    "lat": "24.6606",
    "lon": "121.0983",
    "address": "查無地址"
},
{
    "name": "溫馨庭園休閒農場",
    "region": "新竹橫山",
    "lat": "24.7081",
    "lon": "121.1455",
    "address": "312台灣新竹縣橫山鄉仁愛街62巷7號"
},
{
    "name": "小叮噹科學遊樂區",
    "region": "新竹新豐",
    "lat": "24.8706",
    "lon": "120.9804",
    "address": "304台灣新竹縣新豐鄉康和路199號"
},
{
    "name": "蓮花寺 (蓮花公園)",
    "region": "新竹竹北",
    "lat": "24.8772",
    "lon": "120.9553",
    "address": "302台灣新竹縣竹北市蓮花公園"
},
{
    "name": "格努斯休閒農場",
    "region": "新竹關西",
    "lat": "24.7799",
    "lon": "121.2564",
    "address": "306台灣新竹縣關西鎮10鄰113-1號"
},
{
    "name": "箭竹窩營地",
    "region": "新竹新埔",
    "lat": "24.8560",
    "lon": "121.1007",
    "address": "305台灣新竹縣新埔鎮箭竹窩"
},
{
    "name": "快樂休閒營地 (樂活開心營地)",
    "region": "新竹關西",
    "lat": "24.7732",
    "lon": "121.1984",
    "address": "查無地址"
},
{
    "name": "箕山親水露營區",
    "region": "新竹湖口",
    "lat": "24.8706",
    "lon": "121.0763",
    "address": "303台灣新竹縣湖口鄉糞箕窩8號箕山親水露營區"
},
{
    "name": "湖之居休閒村",
    "region": "新竹關西",
    "lat": "24.7758",
    "lon": "121.1925",
    "address": "查無地址"
},
{
    "name": "馬武督探索森林",
    "region": "新竹關西",
    "lat": "24.7743",
    "lon": "121.2635",
    "address": "306台灣新竹縣關西鎮12鄰138-3號"
},
{
    "name": "飛鳳園自然生態渡假農場",
    "region": "新竹關西",
    "lat": "24.7743",
    "lon": "121.2635",
    "address": "306台灣新竹縣關西鎮新力里下橫坑7鄰80號飛鳳園農場/烤肉/民宿/露營區"
},
{
    "name": "石園農場",
    "region": "桃園大溪",
    "lat": "24.8642",
    "lon": "121.2698",
    "address": "335台灣桃園市大溪區康安里下崁23鄰60號"
},
{
    "name": "自然的樂園",
    "region": "桃園大溪",
    "lat": "24.8313",
    "lon": "121.2624",
    "address": "查無地址"
},
{
    "name": "福份山休閒農場營地",
    "region": "桃園大溪",
    "lat": "24.8855",
    "lon": "121.2732",
    "address": "335台灣桃園市大溪區美山路一段號166巷65號綠果子休憩站"
},
{
    "name": "巫婆休閒農園",
    "region": "桃園復興",
    "lat": "24.8436",
    "lon": "121.3572",
    "address": "336台灣桃園市復興區大窩路508號桃園巫婆景觀農場"
},
{
    "name": "復興探索體驗教學中心",
    "region": "桃園大溪",
    "lat": "24.8226",
    "lon": "121.2359",
    "address": "查無地址"
},
{
    "name": "鹹菜甕休閒農莊",
    "region": "新竹關西",
    "lat": "24.7946",
    "lon": "121.1840",
    "address": "查無地址"
},
{
    "name": "松旺農場",
    "region": "桃園大溪",
    "lat": "24.9061",
    "lon": "121.2680",
    "address": "335台灣桃園市大溪區桃園市大溪區南興里廣福6之2號"
},
{
    "name": "拉拉山卡拉傳奇農場",
    "region": "桃園復興",
    "lat": "24.6926",
    "lon": "121.4048",
    "address": "查無地址"
},
{
    "name": "恩愛農場",
    "region": "桃園復興",
    "lat": "24.6552",
    "lon": "121.3999",
    "address": "336台灣桃園市復興區中心路143-1號恩愛農場"
},
{
    "name": "水蜜桃休閒農場(星空度假農莊)",
    "region": "桃園復興",
    "lat": "24.6767",
    "lon": "121.3990",
    "address": "查無地址"
},
{
    "name": "拉拉山旅遊服務中心 (野營)",
    "region": "桃園復興",
    "lat": "24.6800",
    "lon": "121.3836",
    "address": "查無地址"
},
{
    "name": "拉拉山假日移民棧-山蘇の故鄉",
    "region": "桃園復興",
    "lat": "24.6942",
    "lon": "121.4001",
    "address": "336台灣桃園市復興區華 陵 村 11 鄰 180 之 10 号"
},
{
    "name": "拉拉山觀星營地",
    "region": "桃園復興",
    "lat": "24.6970",
    "lon": "121.4212",
    "address": "33644台灣桃園市復興區拉拉山觀星營地"
},
{
    "name": "拉拉山長榮果園夫妻樹露營區",
    "region": "桃園復興",
    "lat": "24.6967",
    "lon": "121.4210",
    "address": "336台灣桃園市復興區中心路138-2號長榮露營區"
},
{
    "name": "東眼山休閒農場",
    "region": "桃園復興",
    "lat": "24.6921",
    "lon": "121.4193",
    "address": "336台灣桃園市復興鄉佳志20號"
},
{
    "name": "楓田休閒農莊",
    "region": "桃園復興",
    "lat": "24.8330",
    "lon": "121.3861",
    "address": "907台灣屏東縣鹽埔鄉新埔路768號"
},
{
    "name": "拉拉山錦泰農場營地",
    "region": "桃園復興",
    "lat": "24.6858",
    "lon": "121.3972",
    "address": "336台灣桃園市復興區華陵村9鄰99號"
},
{
    "name": "沄峰休閒農場",
    "region": "桃園復興",
    "lat": "24.7012",
    "lon": "121.4222",
    "address": "336台灣桃園市復興區華陵村10鄰143之22號拉拉山．沄峰農場"
},
{
    "name": "馬灣休閒農場",
    "region": "桃園復興",
    "lat": "24.806",
    "lon": "121.3973",
    "address": "336台灣桃園市復興區霞雲里桃園復興馬灣露營區"
},
{
    "name": "飛督努休閒農場",
    "region": "桃園復興",
    "lat": "24.8422",
    "lon": "121.4015",
    "address": "336台灣桃園市復興區霞雲里5鄰佳志20-1號飛督努休閒 露營區"
},
{
    "name": "羅浮紅橋河畔營地",
    "region": "桃園復興",
    "lat": "24.8006",
    "lon": "121.3671",
    "address": "336台灣桃園市復興區 紅橋河畔露營區"
},
{
    "name": "雪霧鬧雅渡休閒農莊",
    "region": "桃園復興",
    "lat": "24.7255",
    "lon": "121.3807",
    "address": "336台灣桃園市復興區"
},
{
    "name": "味全埔心牧場營地",
    "region": "桃園楊梅",
    "lat": "24.9255",
    "lon": "121.1759",
    "address": "32659台灣桃園市楊梅區幼獅路一段439號"
},
{
    "name": "瑞士農園",
    "region": "桃園復興",
    "lat": "24.6986",
    "lon": "121.4252",
    "address": "336台灣桃園市復興區華陵里"
},
{
    "name": "傑仕堡田園農莊營地",
    "region": "桃園楊梅",
    "lat": "24.9408",
    "lon": "121.0911",
    "address": "326台灣桃園市楊梅區民生街221巷159號"
},
{
    "name": "九斗村休閒農場",
    "region": "桃園新屋",
    "lat": "24.9608",
    "lon": "121.1290",
    "address": "327台灣桃園市新屋區五谷路205號"
},
{
    "name": "象山民宿溫泉農場",
    "region": "桃園復興",
    "lat": "24.7901",
    "lon": "121.3844",
    "address": "336台灣桃園市復興區義盛里6鄰下宇內65號"
},
{
    "name": "崑崙藥用植物園",
    "region": "桃園龍潭",
    "lat": "24.8051",
    "lon": "121.2208",
    "address": "查無地址"
},
{
    "name": "耀輝牧場",
    "region": "桃園楊梅",
    "lat": "24.9180",
    "lon": "121.1230",
    "address": "326台灣桃園市楊梅區楊湖路一段654巷81弄88號"
},
{
    "name": "門月閒休閒農場",
    "region": "桃園蘆竹",
    "lat": "25.0877",
    "lon": "121.2723",
    "address": "查無地址"
},
{
    "name": "山水緣庭園景觀餐廳",
    "region": "桃園龍潭",
    "lat": "24.8711",
    "lon": "121.1651",
    "address": "325台灣桃園市龍潭區大北坑街1998巷47號"
},
{
    "name": "驛品香生態農園",
    "region": "桃園楊梅",
    "lat": "24.8830",
    "lon": "121.1514",
    "address": "326台灣桃園市楊梅區校前路1150號"
},
{
    "name": "龍園休閒農場",
    "region": "桃園龍潭",
    "lat": "24.8704",
    "lon": "121.1644",
    "address": "266台灣宜蘭縣三星鄉三星路六段130號"
},
{
    "name": "快樂農場",
    "region": "桃園龍潭",
    "lat": "24.8478",
    "lon": "121.2184",
    "address": "查無地址"
},
{
    "name": "吳厝楊家莊(正隆休閒農場)營地",
    "region": "桃園觀音",
    "lat": "25.0456",
    "lon": "121.1266",
    "address": "328台灣桃園市觀音鄉14之2號"
},
{
    "name": "元音農場營地",
    "region": "桃園觀音",
    "lat": "25.0246",
    "lon": "121.1347",
    "address": "328台灣桃園市觀音區新坡村17鄰38-12號"
},
{
    "name": "鄉之旅渡假村營地",
    "region": "桃園龍潭",
    "lat": "24.8531",
    "lon": "121.2474",
    "address": "325台灣桃園市龍潭區文化路587巷109號"
},
{
    "name": "尖閣園營地",
    "region": "花蓮六十石山",
    "lat": "23.2190",
    "lon": "121.3042",
    "address": "查無地址"
},
{
    "name": "君達香草健康世界",
    "region": "花蓮吉安",
    "lat": "23.9461",
    "lon": "121.5443",
    "address": "查無地址"
},
{
    "name": "四方鮮乳牧場",
    "region": "竹南崎頂",
    "lat": "24.7266",
    "lon": "120.9009",
    "address": "350台灣苗栗縣竹南鎮崎頂里12鄰東崎頂9-6號"
},
{
    "name": "觀海家E121 36 11",
    "region": "花蓮南濱",
    "lat": "23.9577",
    "lon": "121.6030",
    "address": "查無地址"
},
{
    "name": "尚品休閒民宿",
    "region": "花蓮六十石山",
    "lat": "23.2219",
    "lon": "121.3111",
    "address": "Fuli 雲閩 35, 花莲, 富里鄉花蓮縣台灣 983"
},
{
    "name": "雲閩農莊民宿",
    "region": "花蓮六十石山",
    "lat": "23.2167",
    "lon": "121.3032",
    "address": "983台灣花蓮縣富里鄉竹田村雲閩2號"
},
{
    "name": "妙智慧菩提學園區營地",
    "region": "花蓮六十石山",
    "lat": "23.2219",
    "lon": "121.3122",
    "address": "查無地址"
},
{
    "name": "春明農莊營地",
    "region": "花蓮六十石山",
    "lat": "23.2228",
    "lon": "121.3103",
    "address": "983台灣花蓮縣富里鄉竹田村雲閩25鄰27號"
},
{
    "name": "烏魚山莊營地",
    "region": "花蓮六十石山",
    "lat": "23.2217",
    "lon": "121.3092",
    "address": "983台灣花蓮縣富里鄉雲閩19號"
},
{
    "name": "綠野森林民宿",
    "region": "花蓮光復",
    "lat": "23.6733",
    "lon": "121.4410",
    "address": "545台灣南投縣埔里鎮西安路一段550巷12-1號綠野森林農場民宿露營區"
},
{
    "name": "築山園",
    "region": "花蓮吉安",
    "lat": "23.9686",
    "lon": "121.5443",
    "address": "查無地址"
},
{
    "name": "心身活莊園",
    "region": "花蓮壽豐",
    "lat": "23.8486",
    "lon": "121.4960",
    "address": "974台灣花蓮縣壽豐鄉中山路72巷49弄10號"
},
{
    "name": "米棧綜合觀光果園露營區",
    "region": "花蓮壽豐",
    "lat": "23.7968",
    "lon": "121.5233",
    "address": "974台灣花蓮縣壽豐鄉米棧"
},
{
    "name": "合流露營區",
    "region": "花蓮太魯閣",
    "lat": "24.1772",
    "lon": "121.5138",
    "address": "972台灣花蓮縣秀林鄉合流露營地"
},
{
    "name": "海揚農莊",
    "region": "花蓮壽豐",
    "lat": "23.8226",
    "lon": "121.4726",
    "address": "974台灣花蓮縣壽豐鄉廣玄1號花蓮海揚農莊-露營&民宿"
},
{
    "name": "牛山呼庭休閒園區",
    "region": "花蓮水漣",
    "lat": "23.7634",
    "lon": "121.5693",
    "address": "974台灣花蓮縣壽豐鄉牛山39-5號"
},
{
    "name": "西寶國小",
    "region": "花蓮太魯閣",
    "lat": "24.1775",
    "lon": "121.5077",
    "address": "972台灣花蓮縣秀林鄉富世村西寶11號"
},
{
    "name": "東豐露營區",
    "region": "花蓮玉里",
    "lat": "23.3361",
    "lon": "121.3395",
    "address": "981台灣花蓮縣玉里鎮11之1號東豐露營區"
},
{
    "name": "安通溫泉-吉祥溫泉農莊",
    "region": "花蓮玉里",
    "lat": "23.2820",
    "lon": "121.3408",
    "address": "981台灣花蓮縣玉里鎮溫泉 35-6 號"
},
{
    "name": "羅山露營區",
    "region": "花蓮富里",
    "lat": "23.2022",
    "lon": "121.2769",
    "address": "983台灣花蓮縣富里鄉羅山村東湖37號羅山露營區"
},
{
    "name": "加魯灣渡假村(磯崎海水浴場)",
    "region": "花蓮豐濱",
    "lat": "23.7007",
    "lon": "121.5494",
    "address": "查無地址"
},
{
    "name": "黑崧大山露營區",
    "region": "花蓮瑞穗",
    "lat": "23.5587",
    "lon": "121.3846",
    "address": "查無地址"
},
{
    "name": "湧泉牧場",
    "region": "花蓮瑞穗",
    "lat": "23.4936",
    "lon": "121.3524",
    "address": "查無地址"
},
{
    "name": "禪音圓農場",
    "region": "花蓮瑞穗",
    "lat": "23.4866",
    "lon": "121.3336",
    "address": "978台灣花蓮縣瑞穗鄉紅葉村12鄰221-28號"
},
{
    "name": "吉祥庭園温泉",
    "region": "花蓮瑞穗",
    "lat": "23.4871",
    "lon": "121.3513",
    "address": "981台灣花蓮縣玉里鎮溫泉 35-6 號"
},
{
    "name": "石梯坪露營區",
    "region": "花蓮豐濱",
    "lat": "23.4851",
    "lon": "121.5115",
    "address": "977台灣花蓮縣豐濱鄉花蓮縣豐濱鄉港口村石梯坪33號"
},
{
    "name": "東崗秀川溫泉",
    "region": "花蓮瑞穗",
    "lat": "23.4881",
    "lon": "121.3534",
    "address": "978台灣花蓮縣瑞穗鄉溫泉路三段2巷31-6號東岡秀川湯之館"
},
{
    "name": "黃家溫泉民宿露營區",
    "region": "花蓮瑞穗",
    "lat": "23.4963",
    "lon": "121.3569",
    "address": "978台灣花蓮縣瑞穗鄉九如路88之1號瑞穗露營車"
},
{
    "name": "秀姑巒溪泛舟旅客服務中心露營區",
    "region": "花蓮瑞穗",
    "lat": "23.4888",
    "lon": "121.4003",
    "address": "978台灣花蓮縣瑞穗鄉中山路三段215號瑞穗露營區2020"
},
{
    "name": "向上民宿",
    "region": "花蓮豐濱",
    "lat": "23.4682",
    "lon": "121.4904",
    "address": "977台灣花蓮縣豐濱鄉大港口97之1號"
},
{
    "name": "林家園露營區",
    "region": "花蓮赤柯山",
    "lat": "23.3800",
    "lon": "121.3892",
    "address": "查無地址"
},
{
    "name": "加蜜園",
    "region": "花蓮赤柯山",
    "lat": "23.3798",
    "lon": "121.3898",
    "address": "981台灣花蓮縣玉里鎮高寮271號"
},
{
    "name": "神農科技休閒農場",
    "region": "苗栗三灣",
    "lat": "24.674",
    "lon": "120.9501",
    "address": "352台灣苗栗縣三灣鄉內灣村小份美12號"
},
{
    "name": "不遠山莊",
    "region": "苗栗三義",
    "lat": "24.3958",
    "lon": "120.7853",
    "address": "367台灣苗栗縣三義鄉不遠山莊"
},
{
    "name": "汪家古厝",
    "region": "花蓮赤柯山",
    "lat": "23.3823",
    "lon": "121.3900",
    "address": "981台灣花蓮縣玉里鎮赤柯山277號"
},
{
    "name": "芳草古樹花園民宿",
    "region": "花蓮鳳林",
    "lat": "23.7467",
    "lon": "121.4542",
    "address": "975台灣花蓮縣鳳林鎮中和路71號芳草古樹花園"
},
{
    "name": "仙山綠景山莊營地",
    "region": "苗栗三灣",
    "lat": "24.5397",
    "lon": "120.9500",
    "address": "354台灣苗栗縣獅潭鄉小東勢24之1號"
},
{
    "name": "鳳凰山莊(賽斯村)露營區",
    "region": "花蓮鳳林",
    "lat": "23.7557",
    "lon": "121.4303",
    "address": "975台灣花蓮縣鳳林鎮鳳凰路300號"
},
{
    "name": "潭北停車場",
    "region": "花蓮鯉魚潭",
    "lat": "23.9372",
    "lon": "121.5104",
    "address": "974台灣花蓮縣壽豐鄉"
},
{
    "name": "綠野鄉渡假村 (鯉魚潭露營區)",
    "region": "花蓮鯉魚潭",
    "lat": "23.9164",
    "lon": "121.5055",
    "address": "974台灣花蓮縣壽豐鄉池南路二段90號花蓮鯉魚潭露營區-四季風呂能量湯"
},
{
    "name": "山板樵農場",
    "region": "苗栗三義",
    "lat": "24.4022",
    "lon": "120.7946",
    "address": "367台灣苗栗縣三義鄉雙連潭138號"
},
{
    "name": "風.自然生態農場",
    "region": "苗栗三義",
    "lat": "24.3832",
    "lon": "120.8095",
    "address": "查無地址"
},
{
    "name": "岩川休閒園區",
    "region": "苗栗卓蘭",
    "lat": "24.3566",
    "lon": "120.8805",
    "address": "369台灣苗栗縣卓蘭鎮景山63-1號"
},
{
    "name": "福德休閒農場營地",
    "region": "苗栗公館",
    "lat": "24.4632",
    "lon": "120.8536",
    "address": "查無地址"
},
{
    "name": "小雪霸瀑布休閒村",
    "region": "苗栗卓蘭",
    "lat": "24.3425",
    "lon": "120.8769",
    "address": "369台灣苗栗縣卓蘭鎮卓林街"
},
{
    "name": "戀戀山水農莊",
    "region": "苗栗公館",
    "lat": "24.4630",
    "lon": "120.8451",
    "address": "363台灣苗栗縣公館鄉苗栗縣公館鄉"
},
{
    "name": "薪山線露營休閒農場(原森鐵道)",
    "region": "苗栗三義",
    "lat": "24.3583",
    "lon": "120.7726",
    "address": "367台灣苗栗县三义乡森鐵道露營區"
},
{
    "name": "峰州小木屋民宿",
    "region": "苗栗三義",
    "lat": "24.3817",
    "lon": "120.7824",
    "address": "367台灣苗栗县三义乡13鄰6-7號"
},
{
    "name": "大克山森林遊樂區",
    "region": "苗栗卓蘭",
    "lat": "24.3283",
    "lon": "120.8918",
    "address": "369台灣苗栗縣卓蘭鎮大克山森林遊樂區/大克山生態教育園區"
},
{
    "name": "春田窯陶藝休閒渡假園營地",
    "region": "苗栗三義",
    "lat": "24.4097",
    "lon": "120.7990",
    "address": "號, 三義鄉苗栗縣台灣 367"
},
{
    "name": "自然風情",
    "region": "苗栗卓蘭",
    "lat": "24.3325",
    "lon": "120.7822",
    "address": "369台灣苗栗縣卓蘭鎮西坪134之7號"
},
{
    "name": "法雨軒",
    "region": "苗栗卓蘭",
    "lat": "24.3266",
    "lon": "120.8209",
    "address": "查無地址"
},
{
    "name": "佳拉窯休閒農場",
    "region": "苗栗南庄",
    "lat": "24.5762",
    "lon": "120.9945",
    "address": "查無地址"
},
{
    "name": "大自然休閒農場營地",
    "region": "苗栗南庄",
    "lat": "24.5717",
    "lon": "120.9842",
    "address": "353台灣苗栗縣南庄鄉福南8之2號"
},
{
    "name": "好山好水木屋民宿露營區",
    "region": "苗栗南庄",
    "lat": "24.5493",
    "lon": "120.9728",
    "address": "353台灣苗栗縣南庄鄉南庄好山好水民宿號"
},
{
    "name": "山中田園露營區",
    "region": "苗栗南庄",
    "lat": "24.5672",
    "lon": "120.9842",
    "address": "353台灣苗栗縣南庄鄉山中田園營地"
},
{
    "name": "一葉蘭自然生態教育農場露營區",
    "region": "苗栗南庄",
    "lat": "24.5303",
    "lon": "121.0237",
    "address": "查無地址"
},
{
    "name": "容園谷渡假山莊民宿",
    "region": "苗栗南庄",
    "lat": "24.5556",
    "lon": "120.9863",
    "address": "353台灣苗栗縣南庄鄉"
},
{
    "name": "老官道休閒農場",
    "region": "苗栗卓蘭",
    "lat": "24.3473",
    "lon": "120.8319",
    "address": "364台灣苗栗縣大湖鄉新開5鄰12-1號364台灣苗栗縣老官道休閒農場"
},
{
    "name": "樟山林園",
    "region": "苗栗卓蘭",
    "lat": "24.3292",
    "lon": "120.8235",
    "address": "369台灣苗栗縣卓蘭鎮36之7號"
},
{
    "name": "東江溫泉休閒花園",
    "region": "苗栗南庄",
    "lat": "24.5991",
    "lon": "121.0114",
    "address": "查無地址"
},
{
    "name": "知泉露營區",
    "region": "苗栗南庄",
    "lat": "24.5372",
    "lon": "120.9691",
    "address": "353台灣苗栗縣南庄鄉蓬萊村8鄰139號"
},
{
    "name": "東風山莊",
    "region": "苗栗南庄",
    "lat": "24.5594",
    "lon": "120.9786",
    "address": "查無地址"
},
{
    "name": "百香農場",
    "region": "苗栗南庄",
    "lat": "24.5735",
    "lon": "120.9973",
    "address": "353台灣苗栗縣南庄鄉小東河23號"
},
{
    "name": "杉林松境休閒農場",
    "region": "苗栗南庄",
    "lat": "24.6150",
    "lon": "121.0413",
    "address": "353台灣苗栗縣南庄鄉東河村橫屏背12鄰26號"
},
{
    "name": "松濤意境",
    "region": "苗栗南庄",
    "lat": "24.6106",
    "lon": "120.9965",
    "address": "353台灣苗栗縣南庄鄉松濤意境(春天農場) 號"
},
{
    "name": "星語軒",
    "region": "苗栗南庄",
    "lat": "24.5366",
    "lon": "120.9639",
    "address": "353台灣苗栗縣南庄鄉苗栗縣南庄鄉蓬萊村9鄰42份8號"
},
{
    "name": "福元居親子農場",
    "region": "苗栗南庄",
    "lat": "24.5721",
    "lon": "120.9841",
    "address": "353台灣苗栗縣南庄鄉南江村19鄰8-1號"
},
{
    "name": "桂花園鄉村會館生態露營區",
    "region": "苗栗南庄",
    "lat": "24.5954",
    "lon": "121.0020",
    "address": "353台灣苗栗縣南庄鄉東江5鄰73之7號"
}]