[
{
    "region": "南投中寮",
    "name": "福盛山休閒農場",
    "lat": "23.902530",
    "lon": "120.847987"
},
{
    "region": "南投仁愛",
    "name": "曉園民宿",
    "lat": "24.078662",
    "lon": "120.98623"
},
{
    "region": "南投仁愛",
    "name": "泰雅渡假村營地",
    "lat": "24.067569",
    "lon": "120.94593300000001"
},
{
    "region": "南投信義",
    "name": "天時農莊",
    "lat": "24.031284",
    "lon": "121.199841"
},
{
    "region": "南投信義",
    "name": "柳家梅園農場",
    "lat": "23.644139",
    "lon": "120.859139"
},
{
    "region": "南投信義",
    "name": "烏松崙張家堡森林梅園",
    "lat": "23.669889",
    "lon": "120.84225"
},
{
    "region": "南投信義",
    "name": "烏松崙森林渡假營",
    "lat": "23.669894",
    "lon": "120.842249"
},
{
    "region": "南投信義",
    "name": "阿肥的天空農場",
    "lat": "23.714762",
    "lon": "120.85203400000002"
},
{
    "region": "南投國姓",
    "name": "地球村農家民宿",
    "lat": "24.051476",
    "lon": "120.879908"
},
{
    "region": "南投國姓",
    "name": "梅庄休閒渡假中心營地",
    "lat": "24.060466",
    "lon": "120.900571"
},
{
    "region": "南投國姓",
    "name": "玉門關山莊農場",
    "lat": "23.968349",
    "lon": "120.882075"
},
{
    "region": "南投埔里",
    "name": "佳君露營區",
    "lat": "23.940503",
    "lon": "120.92729999999999"
},
{
    "region": "南投埔里",
    "name": "咿喲乀故鄉",
    "lat": "23.9599",
    "lon": "120.89087000000002"
},
{
    "region": "南投埔里",
    "name": "四季春天養生農莊",
    "lat": "24.009933",
    "lon": "120.95492400000002"
},
{
    "region": "南投埔里",
    "name": "江山樂活",
    "lat": "23.93312",
    "lon": "120.89429999999999"
},
{
    "region": "南投埔里",
    "name": "草湳溼地農場",
    "lat": "23.94819",
    "lon": "120.91495600000002"
},
{
    "region": "南投埔里",
    "name": "顏氏牧場",
    "lat": "23.941778",
    "lon": "120.92763900000001"
},
{
    "region": "南投埔里",
    "name": "鯉魚潭露營區",
    "lat": "23.965023",
    "lon": "121.00060700000002"
},
{
    "region": "南投奧萬大",
    "name": "爹姆楓葉山莊",
    "lat": "23.960538",
    "lon": "121.130233"
},
{
    "region": "南投市",
    "name": "牛角坑休閒渡假農場",
    "lat": "23.943479",
    "lon": "120.72526200000001"
},
{
    "region": "南投廬山",
    "name": "莫那魯道生態休閒農場(暫停營業)",
    "lat": "24.015856",
    "lon": "121.18748200000002"
},
{
    "region": "南投廬山",
    "name": "馬赫坡農場營地",
    "lat": "24.015942",
    "lon": "121.18892"
},
{
    "region": "南投春陽",
    "name": "太魯灣溫農場",
    "lat": "24.023306",
    "lon": "121.16688900000001"
},
{
    "region": "南投春陽",
    "name": "櫻花村民宿",
    "lat": "24.026233000000005",
    "lon": "121.163617"
},
{
    "region": "南投春陽",
    "name": "瑪莉溫泉休閒農莊",
    "lat": "24.023889",
    "lon": "121.16358300000002"
},
{
    "region": "南投春陽",
    "name": "田園溫泉露營民宿",
    "lat": "24.021861",
    "lon": "121.12513900000002"
},
{
    "region": "南投春陽",
    "name": "觀溫泉營地",
    "lat": "24.0259",
    "lon": "121.16831"
},
{
    "region": "南投春陽",
    "name": "部落尋奇農莊",
    "lat": "24.02185",
    "lon": "121.12513"
},
{
    "region": "南投春陽",
    "name": "野百合溫泉山莊",
    "lat": "24.02403",
    "lon": "121.1649"
},
{
    "region": "南投東埔",
    "name": "東埔觀光農園",
    "lat": "23.557477",
    "lon": "120.922694"
},
{
    "region": "南投東埔",
    "name": "源頭溫泉民宿營地",
    "lat": "23.565433",
    "lon": "120.933474"
},
{
    "region": "南投東埔",
    "name": "達谷蘭溫泉農場",
    "lat": "23.56627",
    "lon": "120.92097999999999"
},
{
    "region": "南投水里",
    "name": "藝之森休閒渡假村",
    "lat": "23.801966000000004",
    "lon": "120.862613"
},
{
    "region": "南投水里",
    "name": "采荷莊生態休閒農場",
    "lat": "23.80218",
    "lon": "120.865145"
},
{
    "region": "南投清境",
    "name": "五里坡茶園露營區",
    "lat": "24.034978",
    "lon": "121.150353"
},
{
    "region": "南投清境",
    "name": "合歡山小風口停車場",
    "lat": "24.162639",
    "lon": "121.288222"
},
{
    "region": "南投清境",
    "name": "小太陽",
    "lat": "24.061389",
    "lon": "121.17286100000001"
},
{
    "region": "南投清境",
    "name": "愛和華林園",
    "lat": "24.04312",
    "lon": "121.156415"
},
{
    "region": "南投清境",
    "name": "清境小瑞士露營區",
    "lat": "24.044201",
    "lon": "121.15662600000002"
},
{
    "region": "南投清境",
    "name": "維也納庭園",
    "lat": "24.045556000000005",
    "lon": "121.158444"
},
{
    "region": "南投清境",
    "name": "青青草原露營客棧",
    "lat": "24.059908",
    "lon": "121.16793399999999"
},
{
    "region": "南投溪頭",
    "name": "廣山茶苑(原廣記茶苑)",
    "lat": "23.684139",
    "lon": "120.795611"
},
{
    "region": "南投溪頭",
    "name": "文景農場",
    "lat": "23.681833",
    "lon": "120.76375000000002"
},
{
    "region": "南投溪頭",
    "name": "溪頭露營區(溪頭森林遊樂區-自然教育園區露營區)",
    "lat": "23.677275",
    "lon": "120.798304"
},
{
    "region": "南投溪頭",
    "name": "觀山露營區",
    "lat": "23.6762",
    "lon": "120.7935"
},
{
    "region": "南投竹山",
    "name": "延山露營區",
    "lat": "23.732378",
    "lon": "120.731442"
},
{
    "region": "南投竹山",
    "name": "竹屋部落",
    "lat": "23.765614",
    "lon": "120.71837500000001"
},
{
    "region": "南投竹山",
    "name": "車店子休閒農園",
    "lat": "23.731692",
    "lon": "120.671768"
},
{
    "region": "南投竹山",
    "name": "阿旭茶園",
    "lat": "23.656361",
    "lon": "120.76805599999999"
},
{
    "region": "南投竹山",
    "name": "深山林內",
    "lat": "23.687147",
    "lon": "120.71679499999999"
},
{
    "region": "南投竹山",
    "name": "霧的羅曼史",
    "lat": "23.698482",
    "lon": "120.71319199999999"
},
{
    "region": "南投草屯",
    "name": "本草奇花園休閒農場",
    "lat": "23.952427",
    "lon": "120.72230100000002"
},
{
    "region": "南投魚池",
    "name": "三育基督書院",
    "lat": "23.904340000000005",
    "lon": "120.935633"
},
{
    "region": "南投魚池",
    "name": "大自然生態農莊",
    "lat": "23.911985",
    "lon": "120.891858"
},
{
    "region": "南投魚池",
    "name": "日月潭月牙灣營地",
    "lat": "23.843508",
    "lon": "120.904047"
},
{
    "region": "南投魚池",
    "name": "日月潭松湖營地",
    "lat": "23.842971",
    "lon": "120.927694"
},
{
    "region": "南投魚池",
    "name": "日月潭磐石營地",
    "lat": "23.850696",
    "lon": "120.93514"
},
{
    "region": "南投魚池",
    "name": "梢楠園",
    "lat": "23.911667",
    "lon": "120.887222"
},
{
    "region": "南投魚池",
    "name": "聖愛營地",
    "lat": "23.847198",
    "lon": "120.920978"
},
{
    "region": "南投魚池",
    "name": "香菇寮小吃",
    "lat": "23.9159",
    "lon": "120.88679600000002"
},
{
    "region": "南投魚池",
    "name": "魚雅筑度假村",
    "lat": "23.909167",
    "lon": "120.888611"
},
{
    "region": "南投鹿谷",
    "name": "和興製茶站",
    "lat": "23.71155",
    "lon": "120.77337000000001"
},
{
    "region": "南投鹿谷",
    "name": "小半天露營休閒園區",
    "lat": "23.727298",
    "lon": "120.750645"
},
{
    "region": "南投鹿谷",
    "name": "東湖露營區",
    "lat": "23.754111",
    "lon": "120.77349999999998"
},
{
    "region": "南投鹿谷",
    "name": "武岫農圃",
    "lat": "23.68273",
    "lon": "120.76764"
},
{
    "region": "南投鹿谷",
    "name": "鳳凰渡假山莊",
    "lat": "23.712873",
    "lon": "120.823066"
},
{
    "region": "南投鹿谷",
    "name": "鳳凰露營區",
    "lat": "23.742306",
    "lon": "120.781083"
},
{
    "region": "南投鹿谷",
    "name": "麒麟潭波斯園露營區",
    "lat": "23.753664",
    "lon": "120.77208299999998"
},
{
    "region": "台中和平",
    "name": "天園休閒渡假村",
    "lat": "24.174894",
    "lon": "120.93203"
},
{
    "region": "台中和平",
    "name": "武陵農場營地",
    "lat": "24.380486",
    "lon": "121.304877"
},
{
    "region": "台中和平",
    "name": "瓦浪休閒農場民宿",
    "lat": "24.198611",
    "lon": "121.018167"
},
{
    "region": "台中和平",
    "name": "福壽山農場營地",
    "lat": "24.219596",
    "lon": "121.239474"
},
{
    "region": "台中和平",
    "name": "裡冷溪探索園區",
    "lat": "24.157139",
    "lon": "120.958667"
},
{
    "region": "台中和平",
    "name": "谷關汶山飯店",
    "lat": "24.205391",
    "lon": "121.010649"
},
{
    "region": "台中和平",
    "name": "谷關溫泉露營區 (金谷關農場)",
    "lat": "24.169192",
    "lon": "120.960417"
},
{
    "region": "台中和平",
    "name": "雙柔銀杏林農場",
    "lat": "24.250046000000005",
    "lon": "120.903318"
},
{
    "region": "台中外埔",
    "name": "台灣省農會休閒綜合農牧場",
    "lat": "24.330425",
    "lon": "120.61881099999998"
},
{
    "region": "台中太平",
    "name": "酷攀岩",
    "lat": "24.135",
    "lon": "120.80822200000001"
},
{
    "region": "台中新社",
    "name": "小路露營區",
    "lat": "24.240278",
    "lon": "120.796583"
},
{
    "region": "台中新社",
    "name": "布拉姆田莊",
    "lat": "24.193525",
    "lon": "120.818818"
},
{
    "region": "台中新社",
    "name": "梅林親水岸營地",
    "lat": "24.153228",
    "lon": "120.81105"
},
{
    "region": "台中新社",
    "name": "水雲居休閒渡假村",
    "lat": "24.157262",
    "lon": "120.86990800000001"
},
{
    "region": "台中新社",
    "name": "沐心泉休閒會館民宿",
    "lat": "24.149387",
    "lon": "120.847292"
},
{
    "region": "台中新社",
    "name": "綠草原森林溪谷",
    "lat": "24.14474",
    "lon": "120.84722"
},
{
    "region": "台中東勢",
    "name": "悠樂活農場(吊神山農場)",
    "lat": "24.2918",
    "lon": "120.80949800000002"
},
{
    "region": "台中東勢",
    "name": "東勢林場",
    "lat": "24.286695",
    "lon": "120.86900700000001"
},
{
    "region": "台中東勢",
    "name": "農香山莊",
    "lat": "24.24035",
    "lon": "120.85049"
},
{
    "region": "台中豐原",
    "name": "情人谷休閒農場",
    "lat": "24.226184",
    "lon": "120.75693400000002"
},
{
    "region": "台中豐原",
    "name": "綠野行",
    "lat": "24.272556",
    "lon": "120.748611"
},
{
    "region": "台北北投",
    "name": "童軍陽明山活動中心",
    "lat": "25.074341",
    "lon": "121.53207099999999"
},
{
    "region": "台北北投",
    "name": "貴子坑營地",
    "lat": "25.151932",
    "lon": "121.493683"
},
{
    "region": "台北士林",
    "name": "千蝶谷昆蟲生態農場",
    "lat": "25.122",
    "lon": "121.58666699999999"
},
{
    "region": "台北士林",
    "name": "阿水的家",
    "lat": "25.13264",
    "lon": "121.53252000000002"
},
{
    "region": "台北士林",
    "name": "陽明山菁山遊憩區-露營場",
    "lat": "25.153778",
    "lon": "121.55912900000001"
},
{
    "region": "台北萬華",
    "name": "華中河濱公園",
    "lat": "25.016212",
    "lon": "121.495739"
},
{
    "region": "台南七股",
    "name": "七股鹽山",
    "lat": "23.152528",
    "lon": "120.09963900000001"
},
{
    "region": "台南七股",
    "name": "春園高爾夫休閒農場",
    "lat": "23.119826000000003",
    "lon": "120.151742"
},
{
    "region": "台南南化",
    "name": "印月休閒農莊",
    "lat": "23.0575",
    "lon": "120.49419400000001"
},
{
    "region": "台南南化",
    "name": "雙冬民宿",
    "lat": "23.174103",
    "lon": "120.59836300000002"
},
{
    "region": "台南南化",
    "name": "南化水庫(野營)",
    "lat": "23.085056",
    "lon": "120.527306"
},
{
    "region": "台南大內",
    "name": "走馬瀨農場",
    "lat": "23.137083",
    "lon": "120.42927800000001"
},
{
    "region": "台南官田",
    "name": "烏山頭水庫風景區",
    "lat": "23.207944",
    "lon": "120.363"
},
{
    "region": "台南新化",
    "name": "台南桂花園會館",
    "lat": "23.019907",
    "lon": "120.37768900000002"
},
{
    "region": "台南新化",
    "name": "虎頭埤風景區(附設露營區)",
    "lat": "23.026222",
    "lon": "120.33688900000001"
},
{
    "region": "台南東山",
    "name": "仙湖休閒農場",
    "lat": "23.265861",
    "lon": "120.482306"
},
{
    "region": "台南東山",
    "name": "崁頭山孚佑宮(仙公廟)",
    "lat": "23.267861",
    "lon": "120.501083"
},
{
    "region": "台南柳營",
    "name": "尖山埤江南渡假村(尖山埤水庫)",
    "lat": "23.26675",
    "lon": "120.392806"
},
{
    "region": "台南柳營",
    "name": "德元埤荷蘭村生態休閒園區",
    "lat": "23.263889",
    "lon": "120.34111100000001"
},
{
    "region": "台南楠西",
    "name": "曾文水庫東口野營遊憩區",
    "lat": "23.229775",
    "lon": "120.501974"
},
{
    "region": "台南楠西",
    "name": "梅嶺-青青河畔",
    "lat": "23.174695",
    "lon": "120.543996"
},
{
    "region": "台南楠西",
    "name": "龜丹溫泉休閒體驗農園",
    "lat": "23.134194",
    "lon": "120.508361"
},
{
    "region": "台南玉井",
    "name": "龍目井休閒農場",
    "lat": "23.1595",
    "lon": "120.440917"
},
{
    "region": "台南白河",
    "name": "茂勝休閒農場營地",
    "lat": "23.36277",
    "lon": "120.41331100000001"
},
{
    "region": "台南白河",
    "name": "蟬園民宿",
    "lat": "23.30992",
    "lon": "120.46568899999998"
},
{
    "region": "台南關仔嶺",
    "name": "崁頂福安宮",
    "lat": "23.297611",
    "lon": "120.502806"
},
{
    "region": "台南關子嶺",
    "name": "嶺頂公園",
    "lat": "23.3385",
    "lon": "120.503472"
},
{
    "region": "台東利稻",
    "name": "向陽森林遊樂區營地",
    "lat": "23.24833",
    "lon": "120.98585900000002"
},
{
    "region": "台東卑南",
    "name": "初鹿椰子林",
    "lat": "22.86996",
    "lon": "121.09585"
},
{
    "region": "台東卑南",
    "name": "小熊渡假村",
    "lat": "22.88275",
    "lon": "121.11669400000001"
},
{
    "region": "台東卑南",
    "name": "藍天休閒農場",
    "lat": "22.856691",
    "lon": "121.09673699999999"
},
{
    "region": "台東太麻里",
    "name": "金針山金山埡口營區",
    "lat": "22.647917000000003",
    "lon": "120.958944"
},
{
    "region": "台東太麻里",
    "name": "金針山金山星空露營區",
    "lat": "22.633789",
    "lon": "120.97106"
},
{
    "region": "台東市",
    "name": "小野柳露營區",
    "lat": "22.795639",
    "lon": "121.196056"
},
{
    "region": "台東東河",
    "name": "八里溪民宿",
    "lat": "22.884722",
    "lon": "121.2375"
},
{
    "region": "台東東河",
    "name": "椰林觀海園區營地",
    "lat": "22.861583",
    "lon": "121.19471300000001"
},
{
    "region": "台東池上",
    "name": "池上牧野渡假村營地",
    "lat": "23.108582",
    "lon": "121.197524"
},
{
    "region": "台東池上",
    "name": "池上蠶桑休閒農場營地",
    "lat": "23.08691",
    "lon": "121.226063"
},
{
    "region": "台東海端",
    "name": "利稻國小",
    "lat": "23.186611000000003",
    "lon": "121.024583"
},
{
    "region": "台東知本",
    "name": "ㄚ鴨旺",
    "lat": "22.691617",
    "lon": "121.001401"
},
{
    "region": "台東知本",
    "name": "峽谷溫泉營地",
    "lat": "22.681339",
    "lon": "120.984793"
},
{
    "region": "台東知本",
    "name": "東遊季溫泉渡假村-露營烤肉區",
    "lat": "22.69563",
    "lon": "121.020648"
},
{
    "region": "台東知本",
    "name": "樂山溫泉露營區",
    "lat": "22.690823",
    "lon": "121.005456"
},
{
    "region": "台東知本",
    "name": "江媽媽溫泉露營",
    "lat": "22.682519",
    "lon": "120.99329000000002"
},
{
    "region": "台東綠島",
    "name": "綠島紫坪露營區",
    "lat": "22.637286",
    "lon": "121.49767400000002"
},
{
    "region": "台東蘭嶼",
    "name": "椰油國小",
    "lat": "22.045197",
    "lon": "121.51739100000002"
},
{
    "region": "台東都蘭",
    "name": "都歷派出所",
    "lat": "23.0255",
    "lon": "121.33025"
},
{
    "region": "台東都蘭",
    "name": "都蘭派出所",
    "lat": "22.875528",
    "lon": "121.228889"
},
{
    "region": "台東金崙",
    "name": "遠山功夫浴場",
    "lat": "22.532278",
    "lon": "120.954111"
},
{
    "region": "台東長濱",
    "name": "巴歌浪船屋民宿",
    "lat": "23.433323",
    "lon": "121.494262"
},
{
    "region": "台東長濱",
    "name": "情人沙灘",
    "lat": "23.342299",
    "lon": "121.465809"
},
{
    "region": "台東長濱",
    "name": "樟原派出所",
    "lat": "23.413125",
    "lon": "121.482889"
},
{
    "region": "台東關山",
    "name": "清水莊民宿",
    "lat": "23.0436",
    "lon": "121.16813200000001"
},
{
    "region": "台東鹿野",
    "name": "春耕源香草花園",
    "lat": "22.894728",
    "lon": "121.12082200000002"
},
{
    "region": "台東鹿野",
    "name": "盈家溫泉休閒農場營地",
    "lat": "22.896194",
    "lon": "121.094549"
},
{
    "region": "台東鹿野",
    "name": "福鹿山休閒農莊",
    "lat": "22.913361",
    "lon": "121.120083"
},
{
    "region": "台東鹿野",
    "name": "紅葉溫泉親水公園",
    "lat": "22.891861",
    "lon": "121.06941700000002"
},
{
    "region": "台東鹿野",
    "name": "脫線牧場",
    "lat": "22.896259",
    "lon": "121.096501"
},
{
    "region": "台東鹿野",
    "name": "鹿野溪遊季溫泉",
    "lat": "22.8995",
    "lon": "121.10446"
},
{
    "region": "嘉義中埔",
    "name": "綠盈牧場",
    "lat": "23.43025",
    "lon": "120.543"
},
{
    "region": "嘉義大埔",
    "name": "嘉義農場 生態渡假玩國",
    "lat": "23.251111",
    "lon": "120.56361099999998"
},
{
    "region": "嘉義大埔",
    "name": "情人公園",
    "lat": "23.302778",
    "lon": "120.588583"
},
{
    "region": "嘉義大埔",
    "name": "跳跳生態農場",
    "lat": "23.244722",
    "lon": "120.576389"
},
{
    "region": "嘉義太平",
    "name": "大峽谷生態農場",
    "lat": "23.574",
    "lon": "120.645056"
},
{
    "region": "嘉義梅山",
    "name": "大峽谷生態農場",
    "lat": "23.574",
    "lon": "120.645056"
},
{
    "region": "嘉義民雄",
    "name": "松田崗休閒農場",
    "lat": "23.546444",
    "lon": "120.47438900000002"
},
{
    "region": "嘉義民雄",
    "name": "金桔農場",
    "lat": "23.557889",
    "lon": "120.47308300000002"
},
{
    "region": "嘉義瑞里",
    "name": "若蘭山莊入口處營地",
    "lat": "23.538306",
    "lon": "120.67847200000001"
},
{
    "region": "嘉義瑞里",
    "name": "阿喜的店",
    "lat": "23.541861",
    "lon": "120.68058299999998"
},
{
    "region": "嘉義竹崎",
    "name": "多林停車場(大棟山登山口處)",
    "lat": "23.439725",
    "lon": "120.67074"
},
{
    "region": "嘉義竹崎",
    "name": "奮起湖-湘泉民宿",
    "lat": "23.485278",
    "lon": "120.68088900000001"
},
{
    "region": "嘉義竹崎",
    "name": "見來成露營區",
    "lat": "23.504648",
    "lon": "120.659602"
},
{
    "region": "嘉義阿里山",
    "name": "大凍山休閒渡假中心營地",
    "lat": "23.490744",
    "lon": "120.72116399999999"
},
{
    "region": "嘉義阿里山",
    "name": "山美-彬彬露營區",
    "lat": "23.370222",
    "lon": "120.669639"
},
{
    "region": "嘉義阿里山",
    "name": "摩都布有露營區",
    "lat": "23.406389",
    "lon": "120.72197200000001"
},
{
    "region": "嘉義阿里山",
    "name": "阿谷雅娜",
    "lat": "23.530111",
    "lon": "120.739"
},
{
    "region": "嘉義阿里山",
    "name": "豐山- 豐賓山莊",
    "lat": "23.574472",
    "lon": "120.748278"
},
{
    "region": "嘉義阿里山",
    "name": "鄒族園",
    "lat": "23.467694",
    "lon": "120.71347700000001"
},
{
    "region": "基隆七堵",
    "name": "盛德休閒農莊",
    "lat": "25.13288",
    "lon": "121.68975000000002"
},
{
    "region": "宜蘭三星",
    "name": "憲明國小附設福山營地",
    "lat": "24.661603",
    "lon": "121.618695"
},
{
    "region": "宜蘭三星",
    "name": "正統休閒農場民宿",
    "lat": "24.664457",
    "lon": "121.71368800000002"
},
{
    "region": "宜蘭三星",
    "name": "牛鬥一角民宿野營休閒農場",
    "lat": "24.632778",
    "lon": "121.568333"
},
{
    "region": "宜蘭三星",
    "name": "長埤湖停車場",
    "lat": "24.643836",
    "lon": "121.61032699999998"
},
{
    "region": "宜蘭五結",
    "name": "宜蘭冬山河五結堤防停車場",
    "lat": "24.692754000000004",
    "lon": "121.832125"
},
{
    "region": "宜蘭五結",
    "name": "宜蘭冬山河利澤簡橋停車場",
    "lat": "24.669353",
    "lon": "121.81492500000002"
},
{
    "region": "宜蘭冬山",
    "name": "仁山植物園停車場",
    "lat": "24.623703",
    "lon": "121.75229199999998"
},
{
    "region": "宜蘭冬山",
    "name": "仁山茶園",
    "lat": "24.6305",
    "lon": "121.7505"
},
{
    "region": "宜蘭冬山",
    "name": "旺樹園養生教育農場",
    "lat": "24.649194",
    "lon": "121.73475000000002"
},
{
    "region": "宜蘭冬山",
    "name": "東風茶館(東風休閒農場)",
    "lat": "24.619536",
    "lon": "121.729367"
},
{
    "region": "宜蘭南澳",
    "name": "南澳農場",
    "lat": "24.449722",
    "lon": "121.788944"
},
{
    "region": "宜蘭南澳",
    "name": "東岳湧泉",
    "lat": "24.531194",
    "lon": "121.832083"
},
{
    "region": "宜蘭南澳",
    "name": "武塔國小",
    "lat": "24.445583",
    "lon": "121.777667"
},
{
    "region": "宜蘭員山",
    "name": "山水休閒農場",
    "lat": "24.707651",
    "lon": "121.648264"
},
{
    "region": "宜蘭員山",
    "name": "雙連埤野夫炊煙",
    "lat": "24.75297",
    "lon": "121.634102"
},
{
    "region": "宜蘭大同",
    "name": "太平山美霖農場",
    "lat": "24.554167",
    "lon": "121.44375"
},
{
    "region": "宜蘭大同",
    "name": "太平山翠峰湖",
    "lat": "24.512579",
    "lon": "121.600585"
},
{
    "region": "宜蘭大同",
    "name": "寒溪農場",
    "lat": "24.594269",
    "lon": "121.68454900000002"
},
{
    "region": "宜蘭大同",
    "name": "楓之谷(太平山背包客)森林渡假山莊",
    "lat": "24.521667000000004",
    "lon": "121.44750000000002"
},
{
    "region": "宜蘭大同",
    "name": "櫻花溫泉",
    "lat": "24.633944",
    "lon": "121.60522200000001"
},
{
    "region": "宜蘭大同",
    "name": "玉蘭茶園民宿",
    "lat": "24.612937",
    "lon": "121.633909"
},
{
    "region": "宜蘭礁溪",
    "name": "五峰旗瀑布-風景區停車場",
    "lat": "24.829804",
    "lon": "121.751975"
},
{
    "region": "宜蘭礁溪",
    "name": "櫻花陵園(墓地)",
    "lat": "24.823351",
    "lon": "121.70143599999999"
},
{
    "region": "宜蘭蘇澳",
    "name": "武荖坑風景區",
    "lat": "24.612701",
    "lon": "121.813188"
},
{
    "region": "宜蘭頭城",
    "name": "大溪國小",
    "lat": "24.935417",
    "lon": "121.886028"
},
{
    "region": "宜蘭頭城",
    "name": "頭城海水浴場-龜山朝日露營區",
    "lat": "24.852254000000002",
    "lon": "121.82820800000002"
},
{
    "region": "小琉球",
    "name": "沙瑪基島露營渡假區",
    "lat": "22.350805",
    "lon": "120.369043"
},
{
    "region": "屏東三地門",
    "name": "海神宮",
    "lat": "22.820889",
    "lon": "120.64755600000001"
},
{
    "region": "屏東三地門",
    "name": "涼山露營區(涼山瀑布旁)",
    "lat": "22.68267",
    "lon": "120.64469"
},
{
    "region": "屏東三地門",
    "name": "賽嘉樂園",
    "lat": "22.751667",
    "lon": "120.63722199999998"
},
{
    "region": "屏東來義",
    "name": "南太武山莊",
    "lat": "22.561391",
    "lon": "120.676841"
},
{
    "region": "屏東墾丁",
    "name": "六福山莊露營區",
    "lat": "21.956139",
    "lon": "120.784111"
},
{
    "region": "屏東墾丁",
    "name": "君臨休閒農場露營區",
    "lat": "21.946167",
    "lon": "120.795139"
},
{
    "region": "屏東墾丁",
    "name": "大尖山原野露營區",
    "lat": "21.936139",
    "lon": "120.818194"
},
{
    "region": "屏東墾丁",
    "name": "天氣晴露營區",
    "lat": "21.936722",
    "lon": "120.715833"
},
{
    "region": "屏東墾丁",
    "name": "安佳春露營住宿旅店",
    "lat": "22.0335",
    "lon": "120.68916699999998"
},
{
    "region": "屏東墾丁",
    "name": "寂寞公路(寶園民宿露營區)",
    "lat": "21.943583",
    "lon": "120.71288899999999"
},
{
    "region": "屏東墾丁",
    "name": "尼莫休閒渡假中心",
    "lat": "21.969588000000005",
    "lon": "120.75495999999998"
},
{
    "region": "屏東墾丁",
    "name": "後灣-安佳春露營區",
    "lat": "22.033502",
    "lon": "120.68915400000002"
},
{
    "region": "屏東墾丁",
    "name": "最南露營區",
    "lat": "21.8995",
    "lon": "120.85395000000001"
},
{
    "region": "屏東墾丁",
    "name": "沙島渡假村",
    "lat": "21.91206",
    "lon": "120.84810700000001"
},
{
    "region": "屏東墾丁",
    "name": "白沙-浪淘沙椰灣休閒吧(墾丁海白沙灣遊樂區)",
    "lat": "21.9325",
    "lon": "120.72083300000001"
},
{
    "region": "屏東墾丁",
    "name": "砂島-清涼露營區",
    "lat": "21.91375",
    "lon": "120.84788899999998"
},
{
    "region": "屏東墾丁",
    "name": "砂島-青山露營區",
    "lat": "21.913528000000003",
    "lon": "120.847778"
},
{
    "region": "屏東墾丁",
    "name": "紅柴坑-紅柴水鄉",
    "lat": "21.974472",
    "lon": "120.717694"
},
{
    "region": "屏東墾丁",
    "name": "萬里桐-巨石露營區",
    "lat": "21.999111",
    "lon": "120.70294400000002"
},
{
    "region": "屏東墾丁",
    "name": "頂園營地",
    "lat": "21.936139",
    "lon": "120.818194"
},
{
    "region": "屏東墾丁",
    "name": "香蕉灣-原始林露營區",
    "lat": "21.92625",
    "lon": "120.8325"
},
{
    "region": "屏東滿州",
    "name": "一場夢農場露營區",
    "lat": "21.987721000000004",
    "lon": "120.83273400000002"
},
{
    "region": "屏東滿州",
    "name": "紫灣VILLA渡假村",
    "lat": "22.096799",
    "lon": "120.831217"
},
{
    "region": "屏東牡丹",
    "name": "旭海-左岸民宿露營營地",
    "lat": "22.193649",
    "lon": "120.888169"
},
{
    "region": "屏東牡丹",
    "name": "旭海草原露營區",
    "lat": "22.194194",
    "lon": "120.88575"
},
{
    "region": "屏東瑪家",
    "name": "嵐雲綠海",
    "lat": "22.66792",
    "lon": "120.67946"
},
{
    "region": "屏東瑪家",
    "name": "桃花園",
    "lat": "22.66792",
    "lon": "120.67946"
},
{
    "region": "屏東萬巒",
    "name": "穎達生態休閒農場",
    "lat": "22.645528",
    "lon": "120.62702800000001"
},
{
    "region": "屏東車城",
    "name": "保力休閒農場營地",
    "lat": "22.072027",
    "lon": "120.76234100000002"
},
{
    "region": "屏東車城",
    "name": "保力林場(屏東科技大學實驗林場)",
    "lat": "22.071278",
    "lon": "120.76355599999998"
},
{
    "region": "屏東長治",
    "name": "癮石男女生態藝術園區",
    "lat": "22.708361",
    "lon": "120.579722"
},
{
    "region": "彰化二水",
    "name": "蓮荷果休閒農園",
    "lat": "22.766834",
    "lon": "120.72290799999999"
},
{
    "region": "新北三峽",
    "name": "一心休閒農場",
    "lat": "24.043353",
    "lon": "120.58960299999998"
},
{
    "region": "新北三峽",
    "name": "有木國小",
    "lat": "24.853327",
    "lon": "121.43703499999998"
},
{
    "region": "新北三峽",
    "name": "皇后鎮森林營地",
    "lat": "24.91785",
    "lon": "121.43343"
},
{
    "region": "新北三峽",
    "name": "薇菈溫泉會館",
    "lat": "24.864035",
    "lon": "121.421864"
},
{
    "region": "新北三峽",
    "name": "蟾蜍山谷(大車輪)烤肉露營區",
    "lat": "24.856472",
    "lon": "121.43580600000001"
},
{
    "region": "新北坪林",
    "name": "九芎根香魚露營休閒農場",
    "lat": "24.915778",
    "lon": "121.680556"
},
{
    "region": "新北坪林",
    "name": "合歡露營山莊",
    "lat": "24.93037",
    "lon": "121.71077999999999"
},
{
    "region": "新北坪林",
    "name": "坪安潭露營地",
    "lat": "24.948944",
    "lon": "121.73411100000001"
},
{
    "region": "新北坪林",
    "name": "大溪地渡假村",
    "lat": "24.91313",
    "lon": "121.708109"
},
{
    "region": "新北坪林",
    "name": "天山親水農場營地",
    "lat": "24.908237",
    "lon": "121.680107"
},
{
    "region": "新北坪林",
    "name": "成家露營區",
    "lat": "24.89375",
    "lon": "121.73355600000001"
},
{
    "region": "新北坪林",
    "name": "月牙灣營區",
    "lat": "24.95523",
    "lon": "121.74430799999999"
},
{
    "region": "新北坪林",
    "name": "林園營地",
    "lat": "24.940424",
    "lon": "121.71989"
},
{
    "region": "新北坪林",
    "name": "清泉水頭營地",
    "lat": "24.953028",
    "lon": "121.75048900000002"
},
{
    "region": "新北坪林",
    "name": "美樂地露營區",
    "lat": "24.918639",
    "lon": "121.682531"
},
{
    "region": "新北坪林",
    "name": "老地方營地",
    "lat": "24.914722",
    "lon": "121.706917"
},
{
    "region": "新北坪林",
    "name": "茄苳神木潭營地",
    "lat": "24.961216",
    "lon": "121.767912"
},
{
    "region": "新北坪林",
    "name": "茶香地營區",
    "lat": "24.94687",
    "lon": "121.724063"
},
{
    "region": "新北坪林",
    "name": "金溪茶園營地",
    "lat": "24.915876",
    "lon": "121.68184500000001"
},
{
    "region": "新北坪林",
    "name": "鐵馬新樂園露營區",
    "lat": "24.913853",
    "lon": "121.68091100000001"
},
{
    "region": "新北坪林",
    "name": "闊瀨營地",
    "lat": "24.965278",
    "lon": "121.769778"
},
{
    "region": "新北坪林",
    "name": "青山農場營地",
    "lat": "24.894054",
    "lon": "121.73669100000001"
},
{
    "region": "北坪林",
    "name": "黑龍潭營地",
    "lat": "24.956217",
    "lon": "121.78688000000001"
},
{
    "region": "新北坪林",
    "name": "永賓營地",
    "lat": "24.93933",
    "lon": "121.723473"
},
{
    "region": "新北平溪",
    "name": "平湖森林遊樂區",
    "lat": "25.030096",
    "lon": "121.793339"
},
{
    "region": "新北平溪",
    "name": "平溪生態教育會館/平溪森林小學旅店",
    "lat": "25.001523",
    "lon": "121.74704299999999"
},
{
    "region": "新北平溪",
    "name": "東方農場",
    "lat": "25.025954",
    "lon": "121.78630099999998"
},
{
    "region": "新北新店",
    "name": "桂山發電廠",
    "lat": "24.903045",
    "lon": "121.560116"
},
{
    "region": "新北新店",
    "name": "長青谷大自然生活園區營地",
    "lat": "24.926219",
    "lon": "121.526449"
},
{
    "region": "新北汐止",
    "name": "叭連休閒農場",
    "lat": "25.111947",
    "lon": "121.62490100000001"
},
{
    "region": "新北淡水",
    "name": "淡水休閒農場",
    "lat": "25.141333",
    "lon": "121.45802799999998"
},
{
    "region": "新北烏來",
    "name": "桶後溪(野營)",
    "lat": "24.836944",
    "lon": "121.648361"
},
{
    "region": "新北烏來",
    "name": "烏來生態農場營地",
    "lat": "24.859207",
    "lon": "121.54000999999998"
},
{
    "region": "新北烏來",
    "name": "福山緣營區",
    "lat": "24.778836",
    "lon": "121.50315100000002"
},
{
    "region": "新北烏來",
    "name": "卡拉模基民宿村",
    "lat": "24.780335000000004",
    "lon": "121.50291"
},
{
    "region": "新北烏來",
    "name": "大納溫泉",
    "lat": "24.835901",
    "lon": "121.522594"
},
{
    "region": "新北石碇",
    "name": "皇帝殿大山休閒農園",
    "lat": "24.991004",
    "lon": "121.66122100000001"
},
{
    "region": "新北石門",
    "name": "富貴角公園(老梅公園)",
    "lat": "25.290592",
    "lon": "121.53988099999998"
},
{
    "region": "新北石門",
    "name": "朱舍農莊",
    "lat": "25.28881",
    "lon": "121.53428"
},
{
    "region": "新北石門",
    "name": "阿里磅生態農場民宿",
    "lat": "25.264177",
    "lon": "121.583333"
},
{
    "region": "新北萬里",
    "name": "水田園農莊",
    "lat": "25.211027",
    "lon": "121.64169800000002"
},
{
    "region": "新北貢寮",
    "name": "桃源谷龍山園營地",
    "lat": "24.994969",
    "lon": "121.88996300000001"
},
{
    "region": "新北貢寮",
    "name": "翦山水營地",
    "lat": "25.012994",
    "lon": "121.92603300000002"
},
{
    "region": "新北貢寮",
    "name": "龍門露營區",
    "lat": "25.018417",
    "lon": "121.938553"
},
{
    "region": "新北金山",
    "name": "圓潭溪半野營營地",
    "lat": "25.200128",
    "lon": "121.646565"
},
{
    "region": "新北金山",
    "name": "重和溪生態休閒園區",
    "lat": "25.212194",
    "lon": "121.59541699999998"
},
{
    "region": "新北金山",
    "name": "金山青年活動中心營地",
    "lat": "25.225103",
    "lon": "121.643457"
},
{
    "region": "新北雙溪",
    "name": "嗎哪山莊",
    "lat": "25.017028",
    "lon": "121.803389"
},
{
    "region": "新北雙溪",
    "name": "平林休閒農場",
    "lat": "25.036389",
    "lon": "121.853611"
},
{
    "region": "新北雙溪",
    "name": "張家莊渡假露營中心",
    "lat": "24.950359",
    "lon": "121.795399"
},
{
    "region": "新北雙溪",
    "name": "老農夫生態休閒農莊營地",
    "lat": "24.999154",
    "lon": "121.862669"
},
{
    "region": "新竹五峰",
    "name": "仙湖露營區",
    "lat": "24.626278",
    "lon": "121.1165"
},
{
    "region": "新竹五峰",
    "name": "勝櫻農場",
    "lat": "24.636333",
    "lon": "121.144861"
},
{
    "region": "新竹五峰",
    "name": "哈勇營地",
    "lat": "24.624889",
    "lon": "121.15188900000001"
},
{
    "region": "新竹五峰",
    "name": "尤外農場山莊",
    "lat": "24.575797",
    "lon": "121.084584"
},
{
    "region": "新竹五峰",
    "name": "巴斯瓜藍民宿",
    "lat": "24.550278",
    "lon": "121.130278"
},
{
    "region": "新竹五峰",
    "name": "巴棍休閒農莊",
    "lat": "24.575515",
    "lon": "121.087941"
},
{
    "region": "新竹五峰",
    "name": "得碇休閒山莊",
    "lat": "24.576944",
    "lon": "121.09416700000001"
},
{
    "region": "新竹五峰",
    "name": "桃山清泉露營區",
    "lat": "24.574084",
    "lon": "121.1065"
},
{
    "region": "新竹五峰",
    "name": "梅花山莊",
    "lat": "24.616944",
    "lon": "121.127222"
},
{
    "region": "新竹五峰",
    "name": "樂哈山露營區",
    "lat": "24.574444",
    "lon": "121.079444"
},
{
    "region": "新竹五峰",
    "name": "櫻之都",
    "lat": "24.619083000000003",
    "lon": "121.114861"
},
{
    "region": "新竹五峰",
    "name": "浮雲杉林民宿",
    "lat": "24.577278",
    "lon": "121.094556"
},
{
    "region": "新竹五峰",
    "name": "涼山露營區",
    "lat": "24.609667",
    "lon": "121.10066700000002"
},
{
    "region": "新竹五峰",
    "name": "溫家茶園",
    "lat": "24.667175",
    "lon": "121.16401500000002"
},
{
    "region": "新竹五峰",
    "name": "瓦度的家",
    "lat": "24.636173",
    "lon": "121.14469500000001"
},
{
    "region": "新竹五峰",
    "name": "翡速景園",
    "lat": "24.614083",
    "lon": "121.137944"
},
{
    "region": "新竹五峰",
    "name": "老牛農場",
    "lat": "24.582667000000004",
    "lon": "121.082083"
},
{
    "region": "新竹五峰",
    "name": "莫那的家",
    "lat": "24.577982",
    "lon": "121.083608"
},
{
    "region": "新竹五峰",
    "name": "觀雲亭農莊",
    "lat": "24.609167",
    "lon": "121.098444"
},
{
    "region": "新竹五峰",
    "name": "谷亮緣露營地",
    "lat": "24.636173",
    "lon": "121.14469500000001"
},
{
    "region": "新竹五峰",
    "name": "迦南山莊",
    "lat": "24.628889",
    "lon": "121.190556"
},
{
    "region": "新竹五峰",
    "name": "阿慕依露營區",
    "lat": "24.581917",
    "lon": "121.090889"
},
{
    "region": "新竹五峰",
    "name": "阿貴營地",
    "lat": "24.60474",
    "lon": "121.089935"
},
{
    "region": "新竹五峰",
    "name": "魯木自然休閒農場",
    "lat": "24.602778",
    "lon": "121.096111"
},
{
    "region": "新竹五峰",
    "name": "鳥嘴山露營地",
    "lat": "24.578889",
    "lon": "121.078528"
},
{
    "region": "新竹內灣",
    "name": "內灣南坪露營烤肉區",
    "lat": "24.652165",
    "lon": "121.159639"
},
{
    "region": "新竹北埔",
    "name": "永茂森林山莊",
    "lat": "24.636139",
    "lon": "121.060306"
},
{
    "region": "新竹北埔",
    "name": "老頭擺生態農場",
    "lat": "24.673556",
    "lon": "121.06472199999999"
},
{
    "region": "新竹北埔",
    "name": "龍門休閒農場",
    "lat": "24.67171",
    "lon": "121.06013100000001"
},
{
    "region": "新竹尖石",
    "name": "八五山泉山莊",
    "lat": "24.715833",
    "lon": "121.275556"
},
{
    "region": "新竹尖石",
    "name": "八五山老劉果園露營區",
    "lat": "24.715706",
    "lon": "121.28079000000001"
},
{
    "region": "新竹尖石",
    "name": "北得拉曼休閒營地",
    "lat": "24.736444",
    "lon": "121.272417"
},
{
    "region": "新竹尖石",
    "name": "北角吊橋香草農場",
    "lat": "24.697111",
    "lon": "121.192833"
},
{
    "region": "新竹尖石",
    "name": "原鄉原味(尤命的帳幕)露營區",
    "lat": "24.71525",
    "lon": "121.276222"
},
{
    "region": "新竹尖石",
    "name": "友柏花園農莊",
    "lat": "24.728044",
    "lon": "121.227874"
},
{
    "region": "新竹尖石",
    "name": "司馬庫斯新舊部落營地",
    "lat": "24.57863",
    "lon": "121.33367"
},
{
    "region": "新竹尖石",
    "name": "天湖農園",
    "lat": "24.661171",
    "lon": "121.171763"
},
{
    "region": "新竹尖石",
    "name": "尖石紅薔薇",
    "lat": "24.71425",
    "lon": "121.25474999999999"
},
{
    "region": "新竹尖石",
    "name": "山頂農莊",
    "lat": "24.681667",
    "lon": "121.24472200000001"
},
{
    "region": "新竹尖石",
    "name": "拉庫山營地(水田營地)",
    "lat": "24.73385",
    "lon": "121.258742"
},
{
    "region": "新竹尖石",
    "name": "普羅旺休閒山莊",
    "lat": "24.729167",
    "lon": "121.24500000000002"
},
{
    "region": "新竹尖石",
    "name": "梅淮露營區",
    "lat": "24.682217",
    "lon": "121.214401"
},
{
    "region": "新竹尖石",
    "name": "櫻花谷露營區",
    "lat": "24.713523",
    "lon": "121.27017900000001"
},
{
    "region": "新竹尖石",
    "name": "水田部落民宿露營",
    "lat": "24.732285",
    "lon": "121.249881"
},
{
    "region": "新竹尖石",
    "name": "水茗漾民宿咖啡庭園",
    "lat": "24.697778",
    "lon": "121.19583300000001"
},
{
    "region": "新竹尖石",
    "name": "源昇園露營區",
    "lat": "24.749333",
    "lon": "121.26658"
},
{
    "region": "新竹尖石",
    "name": "瑪雅山莊",
    "lat": "24.689233",
    "lon": "121.177504"
},
{
    "region": "新竹尖石",
    "name": "田中休閒露營區",
    "lat": "24.739917",
    "lon": "121.25702800000002"
},
{
    "region": "新竹尖石",
    "name": "綠野森林露營區",
    "lat": "24.661072",
    "lon": "121.171634"
},
{
    "region": "新竹尖石",
    "name": "美樹民宿",
    "lat": "24.654141",
    "lon": "121.30500500000001"
},
{
    "region": "新竹尖石",
    "name": "群園露營區",
    "lat": "24.728436",
    "lon": "121.225285"
},
{
    "region": "新竹尖石",
    "name": "芭比蕾",
    "lat": "24.749333",
    "lon": "121.26658299999998"
},
{
    "region": "新竹尖石",
    "name": "谷燕養鳟場",
    "lat": "24.623611",
    "lon": "121.126944"
},
{
    "region": "新竹尖石",
    "name": "錦屏美人湯館營地",
    "lat": "24.671581",
    "lon": "121.20939"
},
{
    "region": "新竹尖石",
    "name": "香杉露營區",
    "lat": "24.668806",
    "lon": "121.21202799999999"
},
{
    "region": "新竹尖石",
    "name": "馭閒陶苑",
    "lat": "24.741307",
    "lon": "121.25594500000001"
},
{
    "region": "新竹尖石",
    "name": "鴛鴦谷養殖農場",
    "lat": "24.748694",
    "lon": "121.26919400000001"
},
{
    "region": "新竹尖石",
    "name": "谷漢休閒露營區",
    "lat": "24.72417",
    "lon": "121.23257999999998"
},
{
    "region": "新竹峨眉",
    "name": "十二寮桐花谷露營區",
    "lat": "24.671237",
    "lon": "120.993955"
},
{
    "region": "新竹峨眉",
    "name": "峨眉湖休閒農場",
    "lat": "24.674861",
    "lon": "120.98336100000002"
},
{
    "region": "新竹峨眉",
    "name": "紫水岸香草花園",
    "lat": "24.674167",
    "lon": "120.98583299999999"
},
{
    "region": "新竹峨眉",
    "name": "雲雀山莊",
    "lat": "24.669917",
    "lon": "120.990028"
},
{
    "region": "新竹新埔",
    "name": "箭竹窩營地",
    "lat": "24.85602",
    "lon": "121.100774"
},
{
    "region": "新竹新豐",
    "name": "古農美食休閒農場",
    "lat": "24.934722",
    "lon": "120.996111"
},
{
    "region": "新竹新豐",
    "name": "小叮噹科學遊樂區",
    "lat": "24.870694",
    "lon": "120.98049999999999"
},
{
    "region": "新竹橫山",
    "name": "溫馨庭園休閒農場",
    "lat": "24.708175",
    "lon": "121.145537"
},
{
    "region": "新竹橫山",
    "name": "瑪琦健康世界",
    "lat": "24.720104",
    "lon": "121.11884099999999"
},
{
    "region": "新竹湖口",
    "name": "箕山親水露營區",
    "lat": "24.870639",
    "lon": "121.076306"
},
{
    "region": "新竹竹北",
    "name": "蓮花寺 (蓮花公園)",
    "lat": "24.877222",
    "lon": "120.95536100000001"
},
{
    "region": "新竹竹東",
    "name": "神秘國度森林渡假村(成豐夢幻世界)",
    "lat": "24.660616",
    "lon": "121.09839"
},
{
    "region": "新竹關西",
    "name": "快樂休閒營地 (樂活開心營地)",
    "lat": "24.773222",
    "lon": "121.19847200000001"
},
{
    "region": "新竹關西",
    "name": "格努斯休閒農場",
    "lat": "24.779963",
    "lon": "121.25649"
},
{
    "region": "新竹關西",
    "name": "湖之居休閒村",
    "lat": "24.775833",
    "lon": "121.19250000000001"
},
{
    "region": "新竹關西",
    "name": "飛鳳園自然生態渡假農場",
    "lat": "24.774389",
    "lon": "121.26355600000001"
},
{
    "region": "新竹關西",
    "name": "馬武督探索森林",
    "lat": "24.774389",
    "lon": "121.26355600000001"
},
{
    "region": "新竹關西",
    "name": "鹹菜甕休閒農莊",
    "lat": "24.794639",
    "lon": "121.184056"
},
{
    "region": "桃園大溪",
    "name": "復興探索體驗教學中心",
    "lat": "24.822611",
    "lon": "121.23597200000002"
},
{
    "region": "桃園大溪",
    "name": "松旺農場",
    "lat": "24.906165",
    "lon": "121.268084"
},
{
    "region": "桃園大溪",
    "name": "石園農場",
    "lat": "24.86425",
    "lon": "121.26983300000002"
},
{
    "region": "桃園大溪",
    "name": "福份山休閒農場營地",
    "lat": "24.885578",
    "lon": "121.27320500000002"
},
{
    "region": "桃園大溪",
    "name": "自然的樂園",
    "lat": "24.831388",
    "lon": "121.26240600000001"
},
{
    "region": "桃園復興",
    "name": "巫婆休閒農園",
    "lat": "24.843639",
    "lon": "121.35727800000001"
},
{
    "region": "桃園復興",
    "name": "恩愛農場",
    "lat": "24.655222",
    "lon": "121.399917"
},
{
    "region": "桃園復興",
    "name": "拉拉山假日移民棧-山蘇の故鄉",
    "lat": "24.694296",
    "lon": "121.40012299999998"
},
{
    "region": "桃園復興",
    "name": "拉拉山卡拉傳奇農場",
    "lat": "24.692622",
    "lon": "121.40484100000002"
},
{
    "region": "桃園復興",
    "name": "拉拉山旅遊服務中心 (野營)",
    "lat": "24.680092",
    "lon": "121.38369500000002"
},
{
    "region": "桃園復興",
    "name": "拉拉山觀星營地",
    "lat": "24.697073",
    "lon": "121.421221"
},
{
    "region": "桃園復興",
    "name": "拉拉山錦泰農場營地",
    "lat": "24.685862",
    "lon": "121.39724000000001"
},
{
    "region": "桃園復興",
    "name": "拉拉山長榮果園夫妻樹露營區",
    "lat": "24.696749",
    "lon": "121.42101300000002"
},
{
    "region": "桃園復興",
    "name": "東眼山休閒農場",
    "lat": "24.692167",
    "lon": "121.419333"
},
{
    "region": "桃園復興",
    "name": "楓田休閒農莊",
    "lat": "24.833056",
    "lon": "121.386111"
},
{
    "region": "桃園復興",
    "name": "水蜜桃休閒農場(星空度假農莊)",
    "lat": "24.676747000000002",
    "lon": "121.39906899999998"
},
{
    "region": "桃園復興",
    "name": "沄峰休閒農場",
    "lat": "24.701296",
    "lon": "121.422264"
},
{
    "region": "桃園復興",
    "name": "瑞士農園",
    "lat": "24.698606",
    "lon": "121.42529800000001"
},
{
    "region": "桃園復興",
    "name": "羅浮紅橋河畔營地",
    "lat": "24.800639",
    "lon": "121.367167"
},
{
    "region": "桃園復興",
    "name": "象山民宿溫泉農場",
    "lat": "24.790199",
    "lon": "121.38442"
},
{
    "region": "桃園復興",
    "name": "雪霧鬧雅渡休閒農莊",
    "lat": "24.725504",
    "lon": "121.380779"
},
{
    "region": "桃園復興",
    "name": "飛督努休閒農場",
    "lat": "24.842288000000003",
    "lon": "121.401567"
},
{
    "region": "桃園復興",
    "name": "馬灣休閒農場",
    "lat": "24.806",
    "lon": "121.39733299999999"
},
{
    "region": "桃園新屋",
    "name": "九斗村休閒農場",
    "lat": "24.96083",
    "lon": "121.129053"
},
{
    "region": "桃園楊梅",
    "name": "傑仕堡田園農莊營地",
    "lat": "24.940832",
    "lon": "121.091115"
},
{
    "region": "桃園楊梅",
    "name": "味全埔心牧場營地",
    "lat": "24.925554",
    "lon": "121.17598100000001"
},
{
    "region": "桃園楊梅",
    "name": "耀輝牧場",
    "lat": "24.918054",
    "lon": "121.123077"
},
{
    "region": "桃園楊梅",
    "name": "驛品香生態農園",
    "lat": "24.883083",
    "lon": "121.15144400000001"
},
{
    "region": "桃園蘆竹",
    "name": "門月閒休閒農場",
    "lat": "25.08775",
    "lon": "121.27236100000002"
},
{
    "region": "桃園觀音",
    "name": "元音農場營地",
    "lat": "25.024602",
    "lon": "121.13473900000001"
},
{
    "region": "桃園觀音",
    "name": "吳厝楊家莊(正隆休閒農場)營地",
    "lat": "25.045631000000004",
    "lon": "121.12667100000002"
},
{
    "region": "桃園龍潭",
    "name": "山水緣庭園景觀餐廳",
    "lat": "24.87118",
    "lon": "121.16516599999999"
},
{
    "region": "桃園龍潭",
    "name": "崑崙藥用植物園",
    "lat": "24.805133",
    "lon": "121.22084900000002"
},
{
    "region": "桃園龍潭",
    "name": "快樂農場",
    "lat": "24.847877000000004",
    "lon": "121.21840200000001"
},
{
    "region": "桃園龍潭",
    "name": "鄉之旅渡假村營地",
    "lat": "24.853177",
    "lon": "121.247435"
},
{
    "region": "桃園龍潭",
    "name": "龍園休閒農場",
    "lat": "24.870493000000003",
    "lon": "121.16443600000001"
},
{
    "region": "竹南崎頂",
    "name": "四方鮮乳牧場",
    "lat": "24.726639",
    "lon": "120.90094400000001"
},
{
    "region": "花蓮光復",
    "name": "綠野森林民宿",
    "lat": "23.673361",
    "lon": "121.441056"
},
{
    "region": "花蓮六十石山",
    "name": "妙智慧菩提學園區營地",
    "lat": "23.221986",
    "lon": "121.31227999999999"
},
{
    "region": "花蓮六十石山",
    "name": "尖閣園營地",
    "lat": "23.219004",
    "lon": "121.304255"
},
{
    "region": "花蓮六十石山",
    "name": "尚品休閒民宿",
    "lat": "23.2219",
    "lon": "121.31112099999999"
},
{
    "region": "花蓮六十石山",
    "name": "春明農莊營地",
    "lat": "23.222888",
    "lon": "121.310306"
},
{
    "region": "花蓮六十石山",
    "name": "烏魚山莊營地",
    "lat": "23.221707",
    "lon": "121.30925399999998"
},
{
    "region": "花蓮六十石山",
    "name": "雲閩農莊民宿",
    "lat": "23.216729",
    "lon": "121.30322499999998"
},
{
    "region": "花蓮南濱",
    "name": "觀海家E121 36 11",
    "lat": "23.957778",
    "lon": "121.603056"
},
{
    "region": "花蓮吉安",
    "name": "君達香草健康世界",
    "lat": "23.9461",
    "lon": "121.54434"
},
{
    "region": "花蓮吉安",
    "name": "築山園",
    "lat": "23.968676",
    "lon": "121.544389"
},
{
    "region": "花蓮壽豐",
    "name": "心身活莊園",
    "lat": "23.84865",
    "lon": "121.496022"
},
{
    "region": "花蓮壽豐",
    "name": "海揚農莊",
    "lat": "23.82261",
    "lon": "121.47265"
},
{
    "region": "花蓮壽豐",
    "name": "米棧綜合觀光果園露營區",
    "lat": "23.796806",
    "lon": "121.52330600000002"
},
{
    "region": "花蓮太魯閣",
    "name": "合流露營區",
    "lat": "24.177217",
    "lon": "121.513853"
},
{
    "region": "花蓮太魯閣",
    "name": "西寶國小",
    "lat": "24.177556",
    "lon": "121.50775"
},
{
    "region": "花蓮富里",
    "name": "羅山露營區",
    "lat": "23.202222",
    "lon": "121.276972"
},
{
    "region": "花蓮水漣",
    "name": "牛山呼庭休閒園區",
    "lat": "23.763449000000005",
    "lon": "121.5693"
},
{
    "region": "花蓮玉里",
    "name": "安通溫泉-吉祥溫泉農莊",
    "lat": "23.282003",
    "lon": "121.34084"
},
{
    "region": "花蓮玉里",
    "name": "東豐露營區",
    "lat": "23.336161",
    "lon": "121.33953899999999"
},
{
    "region": "花蓮瑞穗",
    "name": "吉祥庭園温泉",
    "lat": "23.487136",
    "lon": "121.351317"
},
{
    "region": "花蓮瑞穗",
    "name": "東崗秀川溫泉",
    "lat": "23.488147",
    "lon": "121.35345800000002"
},
{
    "region": "花蓮瑞穗",
    "name": "湧泉牧場",
    "lat": "23.493611",
    "lon": "121.35249999999999"
},
{
    "region": "花蓮瑞穗",
    "name": "禪音圓農場",
    "lat": "23.486667",
    "lon": "121.33361100000002"
},
{
    "region": "花蓮瑞穗",
    "name": "秀姑巒溪泛舟旅客服務中心露營區",
    "lat": "23.488898",
    "lon": "121.40034200000001"
},
{
    "region": "花蓮瑞穗",
    "name": "黃家溫泉民宿露營區",
    "lat": "23.496365",
    "lon": "121.35697000000002"
},
{
    "region": "花蓮瑞穗",
    "name": "黑崧大山露營區",
    "lat": "23.558722000000003",
    "lon": "121.384667"
},
{
    "region": "花蓮豐濱",
    "name": "加魯灣渡假村(磯崎海水浴場)",
    "lat": "23.700707",
    "lon": "121.54949400000001"
},
{
    "region": "花蓮豐濱",
    "name": "石梯坪露營區",
    "lat": "23.4851",
    "lon": "121.511514"
},
{
    "region": "花蓮豐濱",
    "name": "向上民宿",
    "lat": "23.468299",
    "lon": "121.49042100000001"
},
{
    "region": "花蓮赤柯山",
    "name": "加蜜園",
    "lat": "23.379833",
    "lon": "121.389861"
},
{
    "region": "花蓮赤柯山",
    "name": "林家園露營區",
    "lat": "23.380044",
    "lon": "121.389227"
},
{
    "region": "花蓮赤柯山",
    "name": "汪家古厝",
    "lat": "23.382361",
    "lon": "121.390042"
},
{
    "region": "花蓮鯉魚潭",
    "name": "潭北停車場",
    "lat": "23.93726",
    "lon": "121.51044"
},
{
    "region": "花蓮鯉魚潭",
    "name": "綠野鄉渡假村 (鯉魚潭露營區)",
    "lat": "23.916450000000005",
    "lon": "121.50551999999999"
},
{
    "region": "花蓮鳳林",
    "name": "芳草古樹花園民宿",
    "lat": "23.746755",
    "lon": "121.454201"
},
{
    "region": "花蓮鳳林",
    "name": "鳳凰山莊(賽斯村)露營區",
    "lat": "23.755703",
    "lon": "121.43038300000002"
},
{
    "region": "苗栗三灣",
    "name": "仙山綠景山莊營地",
    "lat": "24.539702",
    "lon": "120.95003100000001"
},
{
    "region": "苗栗三灣",
    "name": "神農科技休閒農場",
    "lat": "24.674",
    "lon": "120.95019399999998"
},
{
    "region": "苗栗三義",
    "name": "不遠山莊",
    "lat": "24.395817",
    "lon": "120.785364"
},
{
    "region": "苗栗三義",
    "name": "山板樵農場",
    "lat": "24.402201",
    "lon": "120.794635"
},
{
    "region": "苗栗三義",
    "name": "峰州小木屋民宿",
    "lat": "24.381778",
    "lon": "120.782472"
},
{
    "region": "苗栗三義",
    "name": "春田窯陶藝休閒渡假園營地",
    "lat": "24.409754",
    "lon": "120.79903400000002"
},
{
    "region": "苗栗三義",
    "name": "薪山線露營休閒農場(原森鐵道)",
    "lat": "24.358306",
    "lon": "120.77261099999998"
},
{
    "region": "苗栗三義",
    "name": "風.自然生態農場",
    "lat": "24.383222",
    "lon": "120.80955599999999"
},
{
    "region": "苗栗公館",
    "name": "戀戀山水農莊",
    "lat": "24.46308",
    "lon": "120.84512000000001"
},
{
    "region": "苗栗公館",
    "name": "福德休閒農場營地",
    "lat": "24.463291",
    "lon": "120.85362200000002"
},
{
    "region": "苗栗卓蘭",
    "name": "大克山森林遊樂區",
    "lat": "24.328389",
    "lon": "120.891806"
},
{
    "region": "苗栗卓蘭",
    "name": "小雪霸瀑布休閒村",
    "lat": "24.342500000000005",
    "lon": "120.876944"
},
{
    "region": "苗栗卓蘭",
    "name": "岩川休閒園區",
    "lat": "24.356667000000005",
    "lon": "120.880556"
},
{
    "region": "苗栗卓蘭",
    "name": "樟山林園",
    "lat": "24.32924",
    "lon": "120.82353"
},
{
    "region": "苗栗卓蘭",
    "name": "法雨軒",
    "lat": "24.326624",
    "lon": "120.82099599999998"
},
{
    "region": "苗栗卓蘭",
    "name": "老官道休閒農場",
    "lat": "24.347306",
    "lon": "120.831944"
},
{
    "region": "苗栗卓蘭",
    "name": "自然風情",
    "lat": "24.3325",
    "lon": "120.782222"
},
{
    "region": "苗栗南庄",
    "name": "一葉蘭自然生態教育農場露營區",
    "lat": "24.530368",
    "lon": "121.023738"
},
{
    "region": "苗栗南庄",
    "name": "佳拉窯休閒農場",
    "lat": "24.576217",
    "lon": "120.99456000000002"
},
{
    "region": "苗栗南庄",
    "name": "大自然休閒農場營地",
    "lat": "24.571717",
    "lon": "120.98425600000002"
},
{
    "region": "苗栗南庄",
    "name": "好山好水木屋民宿露營區",
    "lat": "24.549315",
    "lon": "120.97284099999999"
},
{
    "region": "苗栗南庄",
    "name": "容園谷渡假山莊民宿",
    "lat": "24.555602",
    "lon": "120.98631599999999"
},
{
    "region": "苗栗南庄",
    "name": "山中田園露營區",
    "lat": "24.567222000000005",
    "lon": "120.98425000000002"
},
{
    "region": "苗栗南庄",
    "name": "星語軒",
    "lat": "24.537111",
    "lon": "120.954444"
},
{
    "region": "苗栗南庄",
    "name": "杉林松境休閒農場",
    "lat": "24.615018",
    "lon": "121.041377"
},
{
    "region": "苗栗南庄",
    "name": "東江溫泉休閒花園",
    "lat": "24.599183",
    "lon": "121.011486"
},
{
    "region": "苗栗南庄",
    "name": "東風山莊",
    "lat": "24.559444",
    "lon": "120.97861100000001"
},
{
    "region": "苗栗南庄",
    "name": "松濤意境",
    "lat": "24.610667",
    "lon": "120.99659000000001"
},
{
    "region": "苗栗南庄",
    "name": "桂花園鄉村會館生態露營區",
    "lat": "24.59542",
    "lon": "121.00204000000001"
},
{
    "region": "苗栗南庄",
    "name": "百香農場",
    "lat": "24.5735",
    "lon": "120.997306"
},
{
    "region": "苗栗南庄",
    "name": "知泉露營區",
    "lat": "24.537222000000003",
    "lon": "120.969167"
},
{
    "region": "苗栗南庄",
    "name": "福元居親子農場",
    "lat": "24.5721",
    "lon": "120.98410000000001"
}]